{"type":"FeatureCollection","features":[{"type":"Feature","geometry":{"type":"Point","coordinates":[13.52743,47.79729]},"properties":{"name":"Weissenbacheinlauf","country":"Austria","website":null,"opening_hours":null,"capacity":null,"phone":null,"address":null,"osmType":"node","osmId":19750125}},{"type":"Feature","geometry":{"type":"Point","coordinates":[13.47968,47.80312]},"properties":{"name":"Nautilus","country":"Austria","website":"https://www.nautilus.at/","opening_hours":null,"capacity":null,"phone":null,"address":null,"osmType":"node","osmId":437070451}},{"type":"Feature","geometry":{"type":"Point","coordinates":[13.53161,47.79781]},"properties":{"name":null,"country":"Austria","website":null,"opening_hours":null,"capacity":null,"phone":null,"address":null,"osmType":"node","osmId":437295197}},{"type":"Feature","geometry":{"type":"Point","coordinates":[13.55285,47.8496]},"properties":{"name":"Ofen","country":"Austria","website":null,"opening_hours":null,"capacity":null,"phone":null,"address":null,"osmType":"node","osmId":437310413}},{"type":"Feature","geometry":{"type":"Point","coordinates":[13.55682,47.85398]},"properties":{"name":"Schwarze Brücke","country":"Austria","website":null,"opening_hours":null,"capacity":null,"phone":null,"address":null,"osmType":"node","osmId":437310414}},{"type":"Feature","geometry":{"type":"Point","coordinates":[13.55888,47.85715]},"properties":{"name":"Steinschlag - Tafel","country":"Austria","website":null,"opening_hours":null,"capacity":null,"phone":null,"address":null,"osmType":"node","osmId":437310415}},{"type":"Feature","geometry":{"type":"Point","coordinates":[13.5629,47.8644]},"properties":{"name":"Attersee - Wrack Dixie","country":"Austria","website":"http://www.dive-links.com/tauchplatz.php?id=1711","opening_hours":null,"capacity":null,"phone":null,"address":null,"osmType":"node","osmId":437310417}},{"type":"Feature","geometry":{"type":"Point","coordinates":[13.56868,47.88116]},"properties":{"name":"Steinwand","country":"Austria","website":null,"opening_hours":null,"capacity":null,"phone":null,"address":null,"osmType":"node","osmId":437310420}},{"type":"Feature","geometry":{"type":"Point","coordinates":[13.56777,47.90623]},"properties":{"name":"Under Pressure Watersports","country":"Austria","website":null,"opening_hours":null,"capacity":null,"phone":null,"address":"4b Forsthausstraße, 4852 Weyregg am Attersee","osmType":"node","osmId":437310428}},{"type":"Feature","geometry":{"type":"Point","coordinates":[13.58076,47.9235]},"properties":{"name":"Unterwasserwald","country":"Austria","website":null,"opening_hours":null,"capacity":null,"phone":null,"address":null,"osmType":"node","osmId":437310431}},{"type":"Feature","geometry":{"type":"Point","coordinates":[13.58186,47.92476]},"properties":{"name":"Nöhmer","country":"Austria","website":null,"opening_hours":null,"capacity":null,"phone":null,"address":null,"osmType":"node","osmId":437310434}},{"type":"Feature","geometry":{"type":"Point","coordinates":[13.5846,47.9325]},"properties":{"name":"Surfplatz","country":"Austria","website":null,"opening_hours":null,"capacity":null,"phone":null,"address":null,"osmType":"node","osmId":437310436}},{"type":"Feature","geometry":{"type":"Point","coordinates":[10.8505,47.36587]},"properties":{"name":"Blindsee","country":"Austria","website":"http://www.dive-links.com/tauchplatz.php?id=321","opening_hours":null,"capacity":null,"phone":null,"address":null,"osmType":"node","osmId":663870467}},{"type":"Feature","geometry":{"type":"Point","coordinates":[10.8435,47.4868]},"properties":{"name":"Plansee - Zone 3 (Planseecamp)","country":"Austria","website":"http://www.dive-links.com/tauchplatz.php?id=324","opening_hours":null,"capacity":null,"phone":null,"address":null,"osmType":"node","osmId":663870468}},{"type":"Feature","geometry":{"type":"Point","coordinates":[10.83602,47.48557]},"properties":{"name":"Plansee - Zone 2 (Hotel Forelle)","country":"Austria","website":"http://www.dive-links.com/tauchplatz.php?id=323","opening_hours":null,"capacity":null,"phone":null,"address":null,"osmType":"node","osmId":663870469}},{"type":"Feature","geometry":{"type":"Point","coordinates":[10.81528,47.47695]},"properties":{"name":"Plansee - Zone 1 (Schotterparkplatz Kaiserbrunnen)","country":"Austria","website":"http://www.dive-links.com/tauchplatz.php?id=322","opening_hours":null,"capacity":null,"phone":null,"address":null,"osmType":"node","osmId":663870470}},{"type":"Feature","geometry":{"type":"Point","coordinates":[10.76883,47.45287]},"properties":{"name":"Heiterwanger See - Tauchzone 2","country":"Austria","website":"http://www.dive-links.com/tauchplatz.php?id=2137","opening_hours":null,"capacity":null,"phone":null,"address":null,"osmType":"node","osmId":663870474}},{"type":"Feature","geometry":{"type":"Point","coordinates":[10.78877,47.45754]},"properties":{"name":"Heiterwanger See - Tauchzone 3","country":"Austria","website":"http://www.dive-links.com/tauchplatz.php?id=2138","opening_hours":null,"capacity":null,"phone":null,"address":null,"osmType":"node","osmId":663870475}},{"type":"Feature","geometry":{"type":"Point","coordinates":[10.76171,47.45722]},"properties":{"name":"Heiterwanger See - Tauchzone 1","country":"Austria","website":"http://www.dive-links.com/tauchplatz.php?id=2136","opening_hours":null,"capacity":null,"phone":null,"address":null,"osmType":"node","osmId":663870476}},{"type":"Feature","geometry":{"type":"Point","coordinates":[11.7127,47.48026]},"properties":{"name":"TCI-Parcours","country":"Austria","website":null,"opening_hours":null,"capacity":null,"phone":null,"address":null,"osmType":"node","osmId":663870691}},{"type":"Feature","geometry":{"type":"Point","coordinates":[13.91756,46.6521]},"properties":{"name":"Ossiacher See - Gemeindebad St. Andrä","country":"Austria","website":"http://www.dive-links.com/tauchplatz.php?id=2801","opening_hours":null,"capacity":null,"phone":null,"address":null,"osmType":"node","osmId":663870705}},{"type":"Feature","geometry":{"type":"Point","coordinates":[13.89631,46.65858]},"properties":{"name":"Ossiacher See - Kessel-Strandbad Christa","country":"Austria","website":"http://www.dive-links.com/tauchplatz.php?id=2017","opening_hours":null,"capacity":null,"phone":null,"address":null,"osmType":"node","osmId":663870706}},{"type":"Feature","geometry":{"type":"Point","coordinates":[13.57733,46.79507]},"properties":{"name":"Millstätter See - Bucht von Döbriach;Millstätter See - Junfernsprung;Millstätter See - Liafelsen;Millstätter See - Ostufer;Millstätter See - Wrack `Möve`","country":"Austria","website":null,"opening_hours":null,"capacity":null,"phone":null,"address":null,"osmType":"node","osmId":663870707}},{"type":"Feature","geometry":{"type":"Point","coordinates":[13.7522,46.7696]},"properties":{"name":"Brennsee","country":"Austria","website":"http://www.dive-links.com/tauchplatz.php?id=1699","opening_hours":null,"capacity":null,"phone":null,"address":null,"osmType":"node","osmId":663870711}},{"type":"Feature","geometry":{"type":"Point","coordinates":[13.34176,46.7058]},"properties":{"name":"Weißensee - Große Steinwand","country":"Austria","website":"http://www.dive-links.com/tauchplatz.php?id=107","opening_hours":null,"capacity":null,"phone":null,"address":null,"osmType":"node","osmId":663870714}},{"type":"Feature","geometry":{"type":"Point","coordinates":[13.34176,46.70582]},"properties":{"name":"Weißensee - Tschelankofel","country":"Austria","website":"http://www.dive-links.com/tauchplatz.php?id=106","opening_hours":null,"capacity":null,"phone":null,"address":null,"osmType":"node","osmId":663870715}},{"type":"Feature","geometry":{"type":"Point","coordinates":[13.34176,46.70586]},"properties":{"name":"Weißensee - Laka","country":"Austria","website":"http://www.dive-links.com/tauchplatz.php?id=105","opening_hours":null,"capacity":null,"phone":null,"address":null,"osmType":"node","osmId":663870716}},{"type":"Feature","geometry":{"type":"Point","coordinates":[13.34176,46.70583]},"properties":{"name":"Weißensee - Erker","country":"Austria","website":"http://www.dive-links.com/tauchplatz.php?id=104","opening_hours":null,"capacity":null,"phone":null,"address":null,"osmType":"node","osmId":663870717}},{"type":"Feature","geometry":{"type":"Point","coordinates":[13.34176,46.70584]},"properties":{"name":"Weißensee - Basis","country":"Austria","website":"http://www.dive-links.com/tauchplatz.php?id=103","opening_hours":null,"capacity":null,"phone":null,"address":null,"osmType":"node","osmId":663870718}},{"type":"Feature","geometry":{"type":"Point","coordinates":[13.44035,46.62544]},"properties":{"name":"Pressegger See","country":"Austria","website":"http://www.dive-links.com/tauchplatz.php?id=2016","opening_hours":null,"capacity":null,"phone":null,"address":null,"osmType":"node","osmId":663870719}},{"type":"Feature","geometry":{"type":"Point","coordinates":[13.50703,47.52783]},"properties":{"name":"Vorderer Gosausee - Bootshütte bis Bärnkogel","country":"Austria","website":"http://www.dive-links.com/tauchplatz.php?id=66","opening_hours":null,"capacity":null,"phone":null,"address":null,"osmType":"node","osmId":663870724}},{"type":"Feature","geometry":{"type":"Point","coordinates":[13.66193,47.57578]},"properties":{"name":"Hallstättersee - Landbettler","country":"Austria","website":"http://www.dive-links.com/tauchplatz.php?id=1731","opening_hours":null,"capacity":null,"phone":null,"address":null,"osmType":"node","osmId":663870726}},{"type":"Feature","geometry":{"type":"Point","coordinates":[13.54671,47.81267]},"properties":{"name":"Tauchplatz Hinkelsteine","country":"Austria","website":"http://www.dive-links.com/tauchplatz.php?id=1717","opening_hours":null,"capacity":null,"phone":null,"address":null,"osmType":"node","osmId":663870743}},{"type":"Feature","geometry":{"type":"Point","coordinates":[13.5281,47.79729]},"properties":{"name":"Attersee - Weißenbacheinlauf (Leitplanke)","country":"Austria","website":"http://www.dive-links.com/tauchplatz.php?id=1718","opening_hours":null,"capacity":null,"phone":null,"address":null,"osmType":"node","osmId":663870745}},{"type":"Feature","geometry":{"type":"Point","coordinates":[13.37778,47.80663]},"properties":{"name":"Mondsee - Harnischwand","country":"Austria","website":"http://www.dive-links.com/tauchplatz.php?id=47","opening_hours":null,"capacity":null,"phone":null,"address":null,"osmType":"node","osmId":663870749}},{"type":"Feature","geometry":{"type":"Point","coordinates":[13.4065,47.79878]},"properties":{"name":"Mondsee - Kienbergwand","country":"Austria","website":"http://www.dive-links.com/tauchplatz.php?id=46","opening_hours":null,"capacity":null,"phone":null,"address":null,"osmType":"node","osmId":663870750}},{"type":"Feature","geometry":{"type":"Point","coordinates":[13.42332,47.79958]},"properties":{"name":"Mondsee - Kreuzstein","country":"Austria","website":"http://www.dive-links.com/tauchplatz.php?id=45","opening_hours":null,"capacity":null,"phone":null,"address":null,"osmType":"node","osmId":663870751}},{"type":"Feature","geometry":{"type":"Point","coordinates":[13.41239,47.74498]},"properties":{"name":"Wolfgangsee - Franzosenschanze/Parkplatz Abersee","country":"Austria","website":"http://www.dive-links.com/tauchplatz.php?id=71","opening_hours":null,"capacity":null,"phone":null,"address":null,"osmType":"node","osmId":663870752}},{"type":"Feature","geometry":{"type":"Point","coordinates":[13.38817,47.76597]},"properties":{"name":"Wolfgangsee - Fürbergbucht/Falkensteinwand","country":"Austria","website":"http://www.dive-links.com/tauchplatz.php?id=70","opening_hours":null,"capacity":null,"phone":null,"address":null,"osmType":"node","osmId":663870753}},{"type":"Feature","geometry":{"type":"Point","coordinates":[13.94518,47.51399]},"properties":{"name":"Salza-Speichersee","country":"Austria","website":"http://www.dive-links.com/tauchplatz.php?id=420","opening_hours":null,"capacity":null,"phone":null,"address":null,"osmType":"node","osmId":663870754}},{"type":"Feature","geometry":{"type":"Point","coordinates":[14.16581,47.79141]},"properties":{"name":"Klauser See","country":"Austria","website":"http://www.dive-links.com/tauchplatz.php?id=68","opening_hours":null,"capacity":null,"phone":null,"address":null,"osmType":"node","osmId":663870778}},{"type":"Feature","geometry":{"type":"Point","coordinates":[15.45885,46.97668]},"properties":{"name":"Copacabana","country":"Austria","website":"http://www.dive-links.com/tauchplatz.php?id=81","opening_hours":null,"capacity":null,"phone":null,"address":null,"osmType":"node","osmId":663870783}},{"type":"Feature","geometry":{"type":"Point","coordinates":[15.26441,47.79227]},"properties":{"name":"Tauchplatz Taucheinstieg 1/ Harry's Taucherbankerl","country":"Austria","website":"https://www.arge-tauchen.at/erlaufsee","opening_hours":null,"capacity":null,"phone":null,"address":null,"osmType":"node","osmId":663870785}},{"type":"Feature","geometry":{"type":"Point","coordinates":[14.42029,46.78517]},"properties":{"name":"Scuba-Team-Kärnten","country":"Austria","website":"https://www.scuba-team-kaernten.at/","opening_hours":null,"capacity":null,"phone":null,"address":null,"osmType":"node","osmId":663870786}},{"type":"Feature","geometry":{"type":"Point","coordinates":[13.55993,47.86]},"properties":{"name":"Attersee - Liebesbrücke","country":"Austria","website":"http://www.dive-links.com/tauchplatz.php?id=1712","opening_hours":null,"capacity":null,"phone":null,"address":null,"osmType":"node","osmId":663870807}},{"type":"Feature","geometry":{"type":"Point","coordinates":[13.54595,47.84012]},"properties":{"name":"Attersee - Föttinger","country":"Austria","website":"http://www.dive-links.com/tauchplatz.php?id=1715","opening_hours":null,"capacity":null,"phone":null,"address":null,"osmType":"node","osmId":663870808}},{"type":"Feature","geometry":{"type":"Point","coordinates":[13.54572,47.82942]},"properties":{"name":"Attersee - Schlierwand","country":"Austria","website":"http://www.dive-links.com/tauchplatz.php?id=1716","opening_hours":null,"capacity":null,"phone":null,"address":null,"osmType":"node","osmId":663870818}},{"type":"Feature","geometry":{"type":"Point","coordinates":[13.48594,47.79096]},"properties":{"name":"Attersee - Ferrari-Kapelle","country":"Austria","website":"http://www.dive-links.com/tauchplatz.php?id=1721","opening_hours":null,"capacity":null,"phone":null,"address":null,"osmType":"node","osmId":663870821}},{"type":"Feature","geometry":{"type":"Point","coordinates":[13.56504,47.86722]},"properties":{"name":"Attersee - Twin Towers","country":"Austria","website":"http://www.dive-links.com/tauchplatz.php?id=1710","opening_hours":null,"capacity":null,"phone":null,"address":null,"osmType":"node","osmId":663870823}},{"type":"Feature","geometry":{"type":"Point","coordinates":[13.56682,47.90618]},"properties":{"name":"Attersee - Nautilus (Divesport)","country":"Austria","website":"http://www.divesport.at","opening_hours":null,"capacity":null,"phone":null,"address":null,"osmType":"node","osmId":663870826}},{"type":"Feature","geometry":{"type":"Point","coordinates":[13.56722,47.87295]},"properties":{"name":"Attersee - Alexenau","country":"Austria","website":"http://www.dive-links.com/tauchplatz.php?id=1709","opening_hours":null,"capacity":null,"phone":null,"address":null,"osmType":"node","osmId":663870828}},{"type":"Feature","geometry":{"type":"Point","coordinates":[13.5822,47.92478]},"properties":{"name":"Attersee - Nöhmer","country":"Austria","website":"http://www.dive-links.com/tauchplatz.php?id=1707","opening_hours":null,"capacity":null,"phone":null,"address":null,"osmType":"node","osmId":663870830}},{"type":"Feature","geometry":{"type":"Point","coordinates":[13.68349,47.83546]},"properties":{"name":"vorderer Langbathsee - Nordufer / Murenabgang","country":"Austria","website":"http://www.dive-links.com/tauchplatz.php?id=59","opening_hours":null,"capacity":null,"phone":null,"address":null,"osmType":"node","osmId":663870832}},{"type":"Feature","geometry":{"type":"Point","coordinates":[13.6879,47.83448]},"properties":{"name":"vorderer Langbathsee - Ostufer","country":"Austria","website":"http://www.dive-links.com/tauchplatz.php?id=58","opening_hours":null,"capacity":null,"phone":null,"address":null,"osmType":"node","osmId":663870837}},{"type":"Feature","geometry":{"type":"Point","coordinates":[13.50944,47.81972]},"properties":{"name":"Attersee - Kohlbauernaufsatz","country":"Austria","website":"http://www.dive-links.com/tauchplatz.php?id=48","opening_hours":null,"capacity":null,"phone":null,"address":null,"osmType":"node","osmId":663870840}},{"type":"Feature","geometry":{"type":"Point","coordinates":[13.58122,47.92362]},"properties":{"name":"Attersee - Unterwasserwald Kammer","country":"Austria","website":"http://www.dive-links.com/tauchplatz.php?id=50","opening_hours":null,"capacity":null,"phone":null,"address":null,"osmType":"node","osmId":663870842}},{"type":"Feature","geometry":{"type":"Point","coordinates":[13.50851,47.79238]},"properties":{"name":"Attersee - Ebenmann-Aufsatz","country":"Austria","website":"http://www.dive-links.com/tauchplatz.php?id=51","opening_hours":null,"capacity":null,"phone":null,"address":null,"osmType":"node","osmId":663870844}},{"type":"Feature","geometry":{"type":"Point","coordinates":[13.79728,47.86372]},"properties":{"name":"Traunsee - Fledermausbucht","country":"Austria","website":"http://www.dive-links.com/tauchplatz.php?id=326","opening_hours":null,"capacity":null,"phone":null,"address":null,"osmType":"node","osmId":663870846}},{"type":"Feature","geometry":{"type":"Point","coordinates":[13.79728,47.86373]},"properties":{"name":"Traunsee - Beim Löwen","country":"Austria","website":"http://www.dive-links.com/tauchplatz.php?id=54","opening_hours":null,"capacity":null,"phone":null,"address":null,"osmType":"node","osmId":663870849}},{"type":"Feature","geometry":{"type":"Point","coordinates":[13.79728,47.8637]},"properties":{"name":"Traunsee - Hotel Traunsee","country":"Austria","website":"http://www.dive-links.com/tauchplatz.php?id=53","opening_hours":null,"capacity":null,"phone":null,"address":null,"osmType":"node","osmId":663870850}},{"type":"Feature","geometry":{"type":"Point","coordinates":[13.79728,47.86374]},"properties":{"name":"Traunsee - Eisenau","country":"Austria","website":"http://www.dive-links.com/tauchplatz.php?id=56","opening_hours":null,"capacity":null,"phone":null,"address":null,"osmType":"node","osmId":663870851}},{"type":"Feature","geometry":{"type":"Point","coordinates":[13.79728,47.86374]},"properties":{"name":"Traunsee - Weißer Steinbruch","country":"Austria","website":"http://www.dive-links.com/tauchplatz.php?id=55","opening_hours":null,"capacity":null,"phone":null,"address":null,"osmType":"node","osmId":663870852}},{"type":"Feature","geometry":{"type":"Point","coordinates":[13.79728,47.86371]},"properties":{"name":"Traunsee - Karbach","country":"Austria","website":"http://www.dive-links.com/tauchplatz.php?id=57","opening_hours":null,"capacity":null,"phone":null,"address":null,"osmType":"node","osmId":663870853}},{"type":"Feature","geometry":{"type":"Point","coordinates":[13.79728,47.86373]},"properties":{"name":"Traunsee - Madonna","country":"Austria","website":"http://www.dive-links.com/tauchplatz.php?id=52","opening_hours":null,"capacity":null,"phone":null,"address":null,"osmType":"node","osmId":663870854}},{"type":"Feature","geometry":{"type":"Point","coordinates":[13.79937,48.01514]},"properties":{"name":"Traunfälle","country":"Austria","website":"http://www.dive-links.com/tauchplatz.php?id=325","opening_hours":null,"capacity":null,"phone":null,"address":null,"osmType":"node","osmId":663870855}},{"type":"Feature","geometry":{"type":"Point","coordinates":[9.66976,47.39334]},"properties":{"name":"Schmitter Zoll Einstieg","country":"Austria","website":null,"opening_hours":null,"capacity":null,"phone":null,"address":null,"osmType":"node","osmId":665087346}},{"type":"Feature","geometry":{"type":"Point","coordinates":[9.67222,47.37972]},"properties":{"name":"Diepoldsau Badi Einstieg","country":"Austria","website":null,"opening_hours":null,"capacity":null,"phone":null,"address":null,"osmType":"node","osmId":665087348}},{"type":"Feature","geometry":{"type":"Point","coordinates":[9.67333,47.38889]},"properties":{"name":"Matz Einstieg","country":"Austria","website":null,"opening_hours":null,"capacity":null,"phone":null,"address":null,"osmType":"node","osmId":665087350}},{"type":"Feature","geometry":{"type":"Point","coordinates":[9.67225,47.38057]},"properties":{"name":"Diepoldsau Strandbad Einstieg 2 Winter","country":"Austria","website":null,"opening_hours":null,"capacity":null,"phone":null,"address":null,"osmType":"node","osmId":665087352}},{"type":"Feature","geometry":{"type":"Point","coordinates":[9.6718,47.37999]},"properties":{"name":"Diepoldsau Strandbad Einstieg 1 Badebetrieb","country":"Austria","website":null,"opening_hours":null,"capacity":null,"phone":null,"address":null,"osmType":"node","osmId":665087353}},{"type":"Feature","geometry":{"type":"Point","coordinates":[9.67249,47.38235]},"properties":{"name":"Diepoldsau Sportplatz","country":"Austria","website":null,"opening_hours":null,"capacity":null,"phone":null,"address":null,"osmType":"node","osmId":665087354}},{"type":"Feature","geometry":{"type":"Point","coordinates":[16.38807,47.86804]},"properties":{"name":"Tauchbasis Lorenc","country":"Austria","website":null,"opening_hours":null,"capacity":null,"phone":null,"address":null,"osmType":"node","osmId":827199403}},{"type":"Feature","geometry":{"type":"Point","coordinates":[13.91817,46.66248]},"properties":{"name":"Ossiacher See - Strandbad Sattendorf","country":"Austria","website":"http://www.dive-links.com/tauchplatz.php?id=2804","opening_hours":null,"capacity":null,"phone":null,"address":null,"osmType":"node","osmId":1270747151}},{"type":"Feature","geometry":{"type":"Point","coordinates":[13.58151,47.9004]},"properties":{"name":"Under Pressure","country":"Austria","website":"http://www.up-group.at/","opening_hours":null,"capacity":null,"phone":"+43 650 8000477","address":"24b, 4852 Weyregg am Attersee","osmType":"node","osmId":1359794725}},{"type":"Feature","geometry":{"type":"Point","coordinates":[14.09039,46.62648]},"properties":{"name":"Blue Water Divers","country":"Austria","website":null,"opening_hours":null,"capacity":null,"phone":null,"address":null,"osmType":"node","osmId":1383649491}},{"type":"Feature","geometry":{"type":"Point","coordinates":[13.48532,47.79182]},"properties":{"name":"BMW Dixi","country":"Austria","website":null,"opening_hours":null,"capacity":null,"phone":null,"address":null,"osmType":"node","osmId":1607388460}},{"type":"Feature","geometry":{"type":"Point","coordinates":[13.48768,47.79015]},"properties":{"name":"Attersee Wandl","country":"Austria","website":null,"opening_hours":null,"capacity":null,"phone":null,"address":null,"osmType":"node","osmId":1607922266}},{"type":"Feature","geometry":{"type":"Point","coordinates":[13.54694,47.80461]},"properties":{"name":"Badeplatz Nixe","country":"Austria","website":null,"opening_hours":null,"capacity":null,"phone":null,"address":null,"osmType":"node","osmId":2339137612}},{"type":"Feature","geometry":{"type":"Point","coordinates":[13.50498,47.53143]},"properties":{"name":"Baernkogl","country":"Austria","website":null,"opening_hours":null,"capacity":null,"phone":null,"address":null,"osmType":"node","osmId":2618366891}},{"type":"Feature","geometry":{"type":"Point","coordinates":[13.49725,47.53177]},"properties":{"name":"Klacklboden","country":"Austria","website":null,"opening_hours":null,"capacity":null,"phone":null,"address":null,"osmType":"node","osmId":2618366892}},{"type":"Feature","geometry":{"type":"Point","coordinates":[15.27377,47.78959]},"properties":{"name":"Tauchplatz Taucheinstieg 2 / Schwabbelland","country":"Austria","website":"https://www.arge-tauchen.at/erlaufsee","opening_hours":null,"capacity":null,"phone":null,"address":null,"osmType":"node","osmId":3461562320}},{"type":"Feature","geometry":{"type":"Point","coordinates":[11.71412,47.46775]},"properties":{"name":"Schwarzenau Süd","country":"Austria","website":null,"opening_hours":null,"capacity":null,"phone":null,"address":null,"osmType":"node","osmId":3732089347}},{"type":"Feature","geometry":{"type":"Point","coordinates":[16.38392,47.86889]},"properties":{"name":"Tauchsport Vienna","country":"Austria","website":null,"opening_hours":null,"capacity":null,"phone":null,"address":null,"osmType":"node","osmId":4538434045}},{"type":"Feature","geometry":{"type":"Point","coordinates":[13.39048,47.74192]},"properties":{"name":"Wolfgangsee","country":"Austria","website":null,"opening_hours":null,"capacity":null,"phone":null,"address":null,"osmType":"node","osmId":5749232697}},{"type":"Feature","geometry":{"type":"Point","coordinates":[13.69093,47.55546]},"properties":{"name":"Sportpension Schober","country":"Austria","website":null,"opening_hours":null,"capacity":null,"phone":null,"address":null,"osmType":"node","osmId":5749232699}},{"type":"Feature","geometry":{"type":"Point","coordinates":[13.66346,47.54687]},"properties":{"name":"Hallstätter See","country":"Austria","website":null,"opening_hours":null,"capacity":null,"phone":null,"address":null,"osmType":"node","osmId":5749232700}},{"type":"Feature","geometry":{"type":"Point","coordinates":[13.67431,47.54764]},"properties":{"name":"Hallstätter See Bus","country":"Austria","website":null,"opening_hours":null,"capacity":null,"phone":null,"address":null,"osmType":"node","osmId":5749232701}},{"type":"Feature","geometry":{"type":"Point","coordinates":[13.49762,47.53263]},"properties":{"name":null,"country":"Austria","website":null,"opening_hours":null,"capacity":null,"phone":null,"address":null,"osmType":"node","osmId":5749232702}},{"type":"Feature","geometry":{"type":"Point","coordinates":[13.50664,47.53058]},"properties":{"name":null,"country":"Austria","website":null,"opening_hours":null,"capacity":null,"phone":null,"address":null,"osmType":"node","osmId":5749232703}},{"type":"Feature","geometry":{"type":"Point","coordinates":[13.52994,47.88002]},"properties":{"name":"Nußdorf Hausboot","country":"Austria","website":null,"opening_hours":null,"capacity":null,"phone":null,"address":null,"osmType":"node","osmId":11970204814}},{"type":"Feature","geometry":{"type":"Point","coordinates":[11.71418,47.45669]},"properties":{"name":"Hechenberg Süd","country":"Austria","website":null,"opening_hours":null,"capacity":null,"phone":null,"address":null,"osmType":"node","osmId":12949360626}},{"type":"Feature","geometry":{"type":"Point","coordinates":[11.71432,47.459]},"properties":{"name":"Hechenberg Nord","country":"Austria","website":null,"opening_hours":null,"capacity":null,"phone":null,"address":null,"osmType":"node","osmId":12949360627}},{"type":"Feature","geometry":{"type":"Point","coordinates":[10.8259,47.34957]},"properties":{"name":null,"country":"Austria","website":null,"opening_hours":null,"capacity":null,"phone":null,"address":null,"osmType":"node","osmId":12949400390}},{"type":"Feature","geometry":{"type":"Point","coordinates":[10.8198,47.34499]},"properties":{"name":null,"country":"Austria","website":null,"opening_hours":null,"capacity":null,"phone":null,"address":null,"osmType":"node","osmId":12949400391}},{"type":"Feature","geometry":{"type":"Point","coordinates":[10.82105,47.34545]},"properties":{"name":null,"country":"Austria","website":null,"opening_hours":null,"capacity":null,"phone":null,"address":null,"osmType":"node","osmId":12949400392}},{"type":"Feature","geometry":{"type":"Point","coordinates":[10.82488,47.34745]},"properties":{"name":null,"country":"Austria","website":null,"opening_hours":null,"capacity":null,"phone":null,"address":null,"osmType":"node","osmId":12949400393}},{"type":"Feature","geometry":{"type":"Point","coordinates":[10.82634,47.34529]},"properties":{"name":null,"country":"Austria","website":null,"opening_hours":null,"capacity":null,"phone":null,"address":null,"osmType":"node","osmId":12949400394}},{"type":"Feature","geometry":{"type":"Point","coordinates":[11.41301,47.26097]},"properties":{"name":"Dive Team Innsbruck - UNTER Bewusstsein e.V.","country":"Austria","website":"https://dive-team-innsbruck.at/","opening_hours":null,"capacity":null,"phone":"+43 660 2630470","address":"22 Pacherstraße, 6020 Innsbruck, AT","osmType":"node","osmId":13039015319}},{"type":"Feature","geometry":{"type":"Point","coordinates":[13.52737,47.79726]},"properties":{"name":"Tauchplatz Attersee Wiessenbacheinlauf","country":"Austria","website":"https://www.salzkammergut.at/oesterreich-poi/detail/430000503/taucheinstiegstelle-weissenbacheinlauf.html","opening_hours":null,"capacity":null,"phone":null,"address":null,"osmType":"node","osmId":13856253996}},{"type":"Feature","geometry":{"type":"Point","coordinates":[13.56694,47.90148]},"properties":{"name":"BMI Tauchstützpunkt","country":"Austria","website":null,"opening_hours":null,"capacity":null,"phone":null,"address":"15 Seedorf, 4852 Weyregg am Attersee, AT","osmType":"way","osmId":144528993}},{"type":"Feature","geometry":{"type":"Point","coordinates":[15.42635,46.98436]},"properties":{"name":null,"country":"Austria","website":null,"opening_hours":null,"capacity":null,"phone":null,"address":null,"osmType":"way","osmId":157852608}},{"type":"Feature","geometry":{"type":"Point","coordinates":[13.86529,46.60991]},"properties":{"name":"Tauchschule Ing. Patterer","country":"Austria","website":"www.tauchen.or.at","opening_hours":null,"capacity":null,"phone":null,"address":"32 St.Agathen Weg, 9500 Villach, AT","osmType":"way","osmId":166631632}}]}