{"type":"FeatureCollection","features":[{"type":"Feature","geometry":{"type":"Point","coordinates":[-123.41833,48.42333]},"properties":{"name":"Saxe Point","country":"Canada","website":"http://www.dive-links.com/tauchplatz.php?id=1896","opening_hours":null,"capacity":null,"phone":null,"address":null,"ele":null,"operator":null,"wikipedia":null,"wikidata":null,"description":null,"wheelchair":null,"osmType":"node","osmId":663869272}},{"type":"Feature","geometry":{"type":"Point","coordinates":[-123.40222,48.4174]},"properties":{"name":"S. F. Tolmie","country":"Canada","website":null,"opening_hours":null,"capacity":null,"phone":null,"address":null,"ele":null,"operator":null,"wikipedia":null,"wikidata":null,"description":null,"wheelchair":null,"osmType":"node","osmId":663869274}},{"type":"Feature","geometry":{"type":"Point","coordinates":[-123.27167,48.47833]},"properties":{"name":"Johnstone Reef","country":"Canada","website":"http://www.dive-links.com/tauchplatz.php?id=1817","opening_hours":null,"capacity":null,"phone":null,"address":null,"ele":null,"operator":null,"wikipedia":null,"wikidata":null,"description":null,"wheelchair":null,"osmType":"node","osmId":663869275}},{"type":"Feature","geometry":{"type":"Point","coordinates":[-123.38411,48.41487]},"properties":{"name":"Ogden Point (The Breakwater)","country":"Canada","website":"http://www.dive-links.com/tauchplatz.php?id=1895","opening_hours":null,"capacity":null,"phone":null,"address":null,"ele":null,"operator":null,"wikipedia":null,"wikidata":null,"description":null,"wheelchair":null,"osmType":"node","osmId":663869277}},{"type":"Feature","geometry":{"type":"Point","coordinates":[-123.26876,48.45588]},"properties":{"name":"Spring Bay","country":"Canada","website":"http://www.dive-links.com/tauchplatz.php?id=1897","opening_hours":null,"capacity":null,"phone":null,"address":null,"ele":null,"operator":null,"wikipedia":null,"wikidata":null,"description":null,"wheelchair":null,"osmType":"node","osmId":663869278}},{"type":"Feature","geometry":{"type":"Point","coordinates":[-123.27027,48.46386]},"properties":{"name":"Telegraph Cove","country":"Canada","website":"http://www.dive-links.com/tauchplatz.php?id=1904","opening_hours":null,"capacity":null,"phone":null,"address":null,"ele":null,"operator":null,"wikipedia":null,"wikidata":null,"description":null,"wheelchair":null,"osmType":"node","osmId":663869279}},{"type":"Feature","geometry":{"type":"Point","coordinates":[-123.26601,48.45561]},"properties":{"name":"Ten Mile Point","country":"Canada","website":"http://www.dive-links.com/tauchplatz.php?id=1898","opening_hours":null,"capacity":null,"phone":null,"address":null,"ele":null,"operator":null,"wikipedia":null,"wikidata":null,"description":null,"wheelchair":null,"osmType":"node","osmId":663869281}},{"type":"Feature","geometry":{"type":"Point","coordinates":[-123.25167,48.42333]},"properties":{"name":"Discovery Island","country":"Canada","website":"http://www.dive-links.com/tauchplatz.php?id=1900","opening_hours":null,"capacity":null,"phone":null,"address":null,"ele":null,"operator":null,"wikipedia":null,"wikidata":null,"description":null,"wheelchair":null,"osmType":"node","osmId":663869283}},{"type":"Feature","geometry":{"type":"Point","coordinates":[-123.24018,48.44563]},"properties":{"name":"Fulford Reef","country":"Canada","website":"http://www.dive-links.com/tauchplatz.php?id=1908","opening_hours":null,"capacity":null,"phone":null,"address":null,"ele":null,"operator":null,"wikipedia":null,"wikidata":null,"description":null,"wheelchair":null,"osmType":"node","osmId":663869284}},{"type":"Feature","geometry":{"type":"Point","coordinates":[-123.26667,48.42167]},"properties":{"name":"Chain Islet","country":"Canada","website":"http://www.dive-links.com/tauchplatz.php?id=1907","opening_hours":null,"capacity":null,"phone":null,"address":null,"ele":null,"operator":null,"wikipedia":null,"wikidata":null,"description":null,"wheelchair":null,"osmType":"node","osmId":663869285}},{"type":"Feature","geometry":{"type":"Point","coordinates":[-123.22255,48.42459]},"properties":{"name":"Brinn Rock","country":"Canada","website":"http://www.dive-links.com/tauchplatz.php?id=1906","opening_hours":null,"capacity":null,"phone":null,"address":null,"ele":null,"operator":null,"wikipedia":null,"wikidata":null,"description":null,"wheelchair":null,"osmType":"node","osmId":663869286}},{"type":"Feature","geometry":{"type":"Point","coordinates":[-123.25407,48.41785]},"properties":{"name":"Virtue Rock","country":"Canada","website":"http://www.dive-links.com/tauchplatz.php?id=1910","opening_hours":null,"capacity":null,"phone":null,"address":null,"ele":null,"operator":null,"wikipedia":null,"wikidata":null,"description":null,"wheelchair":null,"osmType":"node","osmId":663869288}},{"type":"Feature","geometry":{"type":"Point","coordinates":[-123.29833,48.40833]},"properties":{"name":"Mouat Reef","country":"Canada","website":"http://www.dive-links.com/tauchplatz.php?id=1909","opening_hours":null,"capacity":null,"phone":null,"address":null,"ele":null,"operator":null,"wikipedia":null,"wikidata":null,"description":null,"wheelchair":null,"osmType":"node","osmId":663869289}},{"type":"Feature","geometry":{"type":"Point","coordinates":[-123.505,48.55833]},"properties":{"name":"McKenzie Bright","country":"Canada","website":"http://www.dive-links.com/tauchplatz.php?id=1920","opening_hours":null,"capacity":null,"phone":null,"address":null,"ele":null,"operator":null,"wikipedia":null,"wikidata":null,"description":null,"wheelchair":null,"osmType":"node","osmId":663869292}},{"type":"Feature","geometry":{"type":"Point","coordinates":[-123.48499,48.57833]},"properties":{"name":"Willis Point","country":"Canada","website":"http://www.dive-links.com/tauchplatz.php?id=1921","opening_hours":null,"capacity":null,"phone":null,"address":null,"ele":null,"operator":null,"wikipedia":null,"wikidata":null,"description":null,"wheelchair":null,"osmType":"node","osmId":663869293}},{"type":"Feature","geometry":{"type":"Point","coordinates":[-123.48602,48.59193]},"properties":{"name":"Senanus Island","country":"Canada","website":"http://www.dive-links.com/tauchplatz.php?id=1924","opening_hours":null,"capacity":null,"phone":null,"address":null,"ele":null,"operator":null,"wikipedia":null,"wikidata":null,"description":null,"wheelchair":null,"osmType":"node","osmId":663869294}},{"type":"Feature","geometry":{"type":"Point","coordinates":[-123.48074,48.59789]},"properties":{"name":"Henderson Point","country":"Canada","website":"http://www.dive-links.com/tauchplatz.php?id=1919","opening_hours":null,"capacity":null,"phone":null,"address":null,"ele":null,"operator":null,"wikipedia":null,"wikidata":null,"description":null,"wheelchair":null,"osmType":"node","osmId":663869295}},{"type":"Feature","geometry":{"type":"Point","coordinates":[-123.51333,48.61833]},"properties":{"name":"Tozier Rock","country":"Canada","website":"http://www.dive-links.com/tauchplatz.php?id=1925","opening_hours":null,"capacity":null,"phone":null,"address":null,"ele":null,"operator":null,"wikipedia":null,"wikidata":null,"description":null,"wheelchair":null,"osmType":"node","osmId":663869296}},{"type":"Feature","geometry":{"type":"Point","coordinates":[-123.53965,48.54602]},"properties":{"name":"White Lady (Repulse Rock)","country":"Canada","website":"http://www.dive-links.com/tauchplatz.php?id=1926","opening_hours":null,"capacity":null,"phone":null,"address":null,"ele":null,"operator":null,"wikipedia":null,"wikidata":null,"description":null,"wheelchair":null,"osmType":"node","osmId":663869297}},{"type":"Feature","geometry":{"type":"Point","coordinates":[-123.48333,48.62333]},"properties":{"name":"Dyer Rocks","country":"Canada","website":"http://www.dive-links.com/tauchplatz.php?id=1927","opening_hours":null,"capacity":null,"phone":null,"address":null,"ele":null,"operator":null,"wikipedia":null,"wikidata":null,"description":null,"wheelchair":null,"osmType":"node","osmId":663869298}},{"type":"Feature","geometry":{"type":"Point","coordinates":[-123.48833,48.68833]},"properties":{"name":"Wain Rock","country":"Canada","website":"http://www.dive-links.com/tauchplatz.php?id=1929","opening_hours":null,"capacity":null,"phone":null,"address":null,"ele":null,"operator":null,"wikipedia":null,"wikidata":null,"description":null,"wheelchair":null,"osmType":"node","osmId":663869299}},{"type":"Feature","geometry":{"type":"Point","coordinates":[-123.435,48.70667]},"properties":{"name":"Arbutus Island","country":"Canada","website":"http://www.dive-links.com/tauchplatz.php?id=1931","opening_hours":null,"capacity":null,"phone":null,"address":null,"ele":null,"operator":null,"wikipedia":null,"wikidata":null,"description":null,"wheelchair":null,"osmType":"node","osmId":663869300}},{"type":"Feature","geometry":{"type":"Point","coordinates":[-123.52,48.7]},"properties":{"name":"Patey Rock","country":"Canada","website":"http://www.dive-links.com/tauchplatz.php?id=1928","opening_hours":null,"capacity":null,"phone":null,"address":null,"ele":null,"operator":null,"wikipedia":null,"wikidata":null,"description":null,"wheelchair":null,"osmType":"node","osmId":663869301}},{"type":"Feature","geometry":{"type":"Point","coordinates":[-123.28667,48.67]},"properties":{"name":"G.B. Church","country":"Canada","website":null,"opening_hours":null,"capacity":null,"phone":null,"address":null,"ele":null,"operator":null,"wikipedia":null,"wikidata":null,"description":null,"wheelchair":null,"osmType":"node","osmId":663869306}},{"type":"Feature","geometry":{"type":"Point","coordinates":[-123.32167,48.67]},"properties":{"name":"Graham`s Wall","country":"Canada","website":"http://www.dive-links.com/tauchplatz.php?id=1933","opening_hours":null,"capacity":null,"phone":null,"address":null,"ele":null,"operator":null,"wikipedia":null,"wikidata":null,"description":null,"wheelchair":null,"osmType":"node","osmId":663869307}},{"type":"Feature","geometry":{"type":"Point","coordinates":[-123.32833,48.67667]},"properties":{"name":"Reay Island","country":"Canada","website":"http://www.dive-links.com/tauchplatz.php?id=1944","opening_hours":null,"capacity":null,"phone":null,"address":null,"ele":null,"operator":null,"wikipedia":null,"wikidata":null,"description":null,"wheelchair":null,"osmType":"node","osmId":663869310}},{"type":"Feature","geometry":{"type":"Point","coordinates":[-123.31667,48.69]},"properties":{"name":"Joan Rock","country":"Canada","website":"http://www.dive-links.com/tauchplatz.php?id=1942","opening_hours":null,"capacity":null,"phone":null,"address":null,"ele":null,"operator":null,"wikipedia":null,"wikidata":null,"description":null,"wheelchair":null,"osmType":"node","osmId":663869311}},{"type":"Feature","geometry":{"type":"Point","coordinates":[-123.36667,48.67167]},"properties":{"name":"Little Group Islands","country":"Canada","website":"http://www.dive-links.com/tauchplatz.php?id=1943","opening_hours":null,"capacity":null,"phone":null,"address":null,"ele":null,"operator":null,"wikipedia":null,"wikidata":null,"description":null,"wheelchair":null,"osmType":"node","osmId":663869312}},{"type":"Feature","geometry":{"type":"Point","coordinates":[-123.33333,48.66]},"properties":{"name":"Forest Island","country":"Canada","website":"http://www.dive-links.com/tauchplatz.php?id=1940","opening_hours":null,"capacity":null,"phone":null,"address":null,"ele":null,"operator":null,"wikipedia":null,"wikidata":null,"description":null,"wheelchair":null,"osmType":"node","osmId":663869313}},{"type":"Feature","geometry":{"type":"Point","coordinates":[-123.27675,48.67092]},"properties":{"name":"Cooper Reef","country":"Canada","website":"http://www.dive-links.com/tauchplatz.php?id=1939","opening_hours":null,"capacity":null,"phone":null,"address":null,"ele":null,"operator":null,"wikipedia":null,"wikidata":null,"description":null,"wheelchair":null,"osmType":"node","osmId":663869314}},{"type":"Feature","geometry":{"type":"Point","coordinates":[-123.31147,48.6653]},"properties":{"name":"Rubly Island","country":"Canada","website":"http://www.dive-links.com/tauchplatz.php?id=1936","opening_hours":null,"capacity":null,"phone":null,"address":null,"ele":null,"operator":null,"wikipedia":null,"wikidata":null,"description":null,"wheelchair":null,"osmType":"node","osmId":663869315}},{"type":"Feature","geometry":{"type":"Point","coordinates":[-123.29368,48.68472]},"properties":{"name":"Arachne Reef","country":"Canada","website":"http://www.dive-links.com/tauchplatz.php?id=1937","opening_hours":null,"capacity":null,"phone":null,"address":null,"ele":null,"operator":null,"wikipedia":null,"wikidata":null,"description":null,"wheelchair":null,"osmType":"node","osmId":663869316}},{"type":"Feature","geometry":{"type":"Point","coordinates":[-123.3002,48.65761]},"properties":{"name":"North Cod Reef","country":"Canada","website":"http://www.dive-links.com/tauchplatz.php?id=1935","opening_hours":null,"capacity":null,"phone":null,"address":null,"ele":null,"operator":null,"wikipedia":null,"wikidata":null,"description":null,"wheelchair":null,"osmType":"node","osmId":663869317}},{"type":"Feature","geometry":{"type":"Point","coordinates":[-123.3,48.65333]},"properties":{"name":"South Cod Reef","country":"Canada","website":"http://www.dive-links.com/tauchplatz.php?id=1946","opening_hours":null,"capacity":null,"phone":null,"address":null,"ele":null,"operator":null,"wikipedia":null,"wikidata":null,"description":null,"wheelchair":null,"osmType":"node","osmId":663869319}},{"type":"Feature","geometry":{"type":"Point","coordinates":[-123.33311,48.69452]},"properties":{"name":"Imrie Island","country":"Canada","website":"http://www.dive-links.com/tauchplatz.php?id=1941","opening_hours":null,"capacity":null,"phone":null,"address":null,"ele":null,"operator":null,"wikipedia":null,"wikidata":null,"description":null,"wheelchair":null,"osmType":"node","osmId":663869320}},{"type":"Feature","geometry":{"type":"Point","coordinates":[-123.33833,48.73333]},"properties":{"name":"Canoe Rock","country":"Canada","website":"http://www.dive-links.com/tauchplatz.php?id=1938","opening_hours":null,"capacity":null,"phone":null,"address":null,"ele":null,"operator":null,"wikipedia":null,"wikidata":null,"description":null,"wheelchair":null,"osmType":"node","osmId":663869321}},{"type":"Feature","geometry":{"type":"Point","coordinates":[-124.98366,49.6785]},"properties":{"name":"Pacific Pro Dive","country":"Canada","website":"https://biganimalencounters.com/","opening_hours":"Mo-Sa 09:30-17:30","capacity":null,"phone":"+1-250-338-6829","address":"V9N 2L4","ele":null,"operator":null,"wikipedia":null,"wikidata":null,"description":null,"wheelchair":null,"osmType":"node","osmId":2533133166}},{"type":"Feature","geometry":{"type":"Point","coordinates":[-123.24025,49.45]},"properties":{"name":"Kelvin Grove Dive Site","country":"Canada","website":null,"opening_hours":null,"capacity":null,"phone":null,"address":null,"ele":null,"operator":null,"wikipedia":null,"wikidata":null,"description":null,"wheelchair":null,"osmType":"node","osmId":12589860894}},{"type":"Feature","geometry":{"type":"Point","coordinates":[-123.23517,49.56027]},"properties":{"name":"Porteau Cove Diving Area","country":"Canada","website":null,"opening_hours":null,"capacity":null,"phone":null,"address":null,"ele":null,"operator":null,"wikipedia":null,"wikidata":null,"description":"Several artificial reefs and wrecks","wheelchair":null,"osmType":"node","osmId":12589864608}},{"type":"Feature","geometry":{"type":"Point","coordinates":[-123.29161,49.37171]},"properties":{"name":"Whytecliff Park Dive Site","country":"Canada","website":null,"opening_hours":null,"capacity":null,"phone":null,"address":null,"ele":null,"operator":null,"wikipedia":null,"wikidata":null,"description":"Popular diving area for beginners and advanced divers.","wheelchair":null,"osmType":"node","osmId":12589868010}},{"type":"Feature","geometry":{"type":"Point","coordinates":[-123.25204,49.39687]},"properties":{"name":"Ansell Point Dive Site","country":"Canada","website":null,"opening_hours":null,"capacity":null,"phone":null,"address":null,"ele":null,"operator":null,"wikipedia":null,"wikidata":null,"description":"Popular scuba and freediving site.","wheelchair":null,"osmType":"node","osmId":12592552419}},{"type":"Feature","geometry":{"type":"Point","coordinates":[-123.99273,49.19168]},"properties":{"name":"Nanaimo Dive Outfitters","country":"Canada","website":"https://www.nanaimodiveoutfitters.ca/","opening_hours":"Mo-Fr 10:00-17:30; Sa 09:00-17:00","capacity":null,"phone":"+1 250 756-1863","address":null,"ele":null,"operator":null,"wikipedia":null,"wikidata":null,"description":null,"wheelchair":null,"osmType":"node","osmId":12803611100}},{"type":"Feature","geometry":{"type":"Point","coordinates":[-123.93295,49.163]},"properties":{"name":"Sundown Diving","country":"Canada","website":"https://www.sundowndiving.com/","opening_hours":null,"capacity":null,"phone":"+1 250 753-1880","address":"22 Esplanade","ele":null,"operator":null,"wikipedia":null,"wikidata":null,"description":null,"wheelchair":null,"osmType":"way","osmId":671676674}},{"type":"Feature","geometry":{"type":"Point","coordinates":[-52.96362,47.60134]},"properties":{"name":"SS Rose Castle","country":"Canada","website":null,"opening_hours":null,"capacity":null,"phone":null,"address":null,"ele":null,"operator":null,"wikipedia":null,"wikidata":null,"description":null,"wheelchair":null,"osmType":"node","osmId":6292677130}},{"type":"Feature","geometry":{"type":"Point","coordinates":[-52.97163,47.59946]},"properties":{"name":"PM-27","country":"Canada","website":null,"opening_hours":null,"capacity":null,"phone":null,"address":null,"ele":null,"operator":null,"wikipedia":null,"wikidata":null,"description":null,"wheelchair":null,"osmType":"node","osmId":9802778108}},{"type":"Feature","geometry":{"type":"Point","coordinates":[-52.97851,47.5833]},"properties":{"name":"SS Saganaga","country":"Canada","website":null,"opening_hours":null,"capacity":null,"phone":null,"address":null,"ele":null,"operator":null,"wikipedia":null,"wikidata":null,"description":null,"wheelchair":null,"osmType":"node","osmId":9802778109}},{"type":"Feature","geometry":{"type":"Point","coordinates":[-52.96815,47.58824]},"properties":{"name":"SS Lord Strathcona","country":"Canada","website":null,"opening_hours":null,"capacity":null,"phone":null,"address":null,"ele":null,"operator":null,"wikipedia":null,"wikidata":null,"description":null,"wheelchair":null,"osmType":"node","osmId":9802778110}}]}