{"type":"FeatureCollection","features":[{"type":"Feature","geometry":{"type":"Point","coordinates":[-123.41833,48.42333]},"properties":{"name":"Saxe Point","country":"Canada","website":"http://www.dive-links.com/tauchplatz.php?id=1896","opening_hours":null,"capacity":null,"phone":null,"address":null,"osmType":"node","osmId":663869272}},{"type":"Feature","geometry":{"type":"Point","coordinates":[-123.40222,48.4174]},"properties":{"name":"S. F. Tolmie","country":"Canada","website":null,"opening_hours":null,"capacity":null,"phone":null,"address":null,"osmType":"node","osmId":663869274}},{"type":"Feature","geometry":{"type":"Point","coordinates":[-123.27167,48.47833]},"properties":{"name":"Johnstone Reef","country":"Canada","website":"http://www.dive-links.com/tauchplatz.php?id=1817","opening_hours":null,"capacity":null,"phone":null,"address":null,"osmType":"node","osmId":663869275}},{"type":"Feature","geometry":{"type":"Point","coordinates":[-123.38411,48.41487]},"properties":{"name":"Ogden Point (The Breakwater)","country":"Canada","website":"http://www.dive-links.com/tauchplatz.php?id=1895","opening_hours":null,"capacity":null,"phone":null,"address":null,"osmType":"node","osmId":663869277}},{"type":"Feature","geometry":{"type":"Point","coordinates":[-123.26876,48.45588]},"properties":{"name":"Spring Bay","country":"Canada","website":"http://www.dive-links.com/tauchplatz.php?id=1897","opening_hours":null,"capacity":null,"phone":null,"address":null,"osmType":"node","osmId":663869278}},{"type":"Feature","geometry":{"type":"Point","coordinates":[-123.27027,48.46386]},"properties":{"name":"Telegraph Cove","country":"Canada","website":"http://www.dive-links.com/tauchplatz.php?id=1904","opening_hours":null,"capacity":null,"phone":null,"address":null,"osmType":"node","osmId":663869279}},{"type":"Feature","geometry":{"type":"Point","coordinates":[-123.26601,48.45561]},"properties":{"name":"Ten Mile Point","country":"Canada","website":"http://www.dive-links.com/tauchplatz.php?id=1898","opening_hours":null,"capacity":null,"phone":null,"address":null,"osmType":"node","osmId":663869281}},{"type":"Feature","geometry":{"type":"Point","coordinates":[-123.25167,48.42333]},"properties":{"name":"Discovery Island","country":"Canada","website":"http://www.dive-links.com/tauchplatz.php?id=1900","opening_hours":null,"capacity":null,"phone":null,"address":null,"osmType":"node","osmId":663869283}},{"type":"Feature","geometry":{"type":"Point","coordinates":[-123.24018,48.44563]},"properties":{"name":"Fulford Reef","country":"Canada","website":"http://www.dive-links.com/tauchplatz.php?id=1908","opening_hours":null,"capacity":null,"phone":null,"address":null,"osmType":"node","osmId":663869284}},{"type":"Feature","geometry":{"type":"Point","coordinates":[-123.26667,48.42167]},"properties":{"name":"Chain Islet","country":"Canada","website":"http://www.dive-links.com/tauchplatz.php?id=1907","opening_hours":null,"capacity":null,"phone":null,"address":null,"osmType":"node","osmId":663869285}},{"type":"Feature","geometry":{"type":"Point","coordinates":[-123.22255,48.42459]},"properties":{"name":"Brinn Rock","country":"Canada","website":"http://www.dive-links.com/tauchplatz.php?id=1906","opening_hours":null,"capacity":null,"phone":null,"address":null,"osmType":"node","osmId":663869286}},{"type":"Feature","geometry":{"type":"Point","coordinates":[-123.25407,48.41785]},"properties":{"name":"Virtue Rock","country":"Canada","website":"http://www.dive-links.com/tauchplatz.php?id=1910","opening_hours":null,"capacity":null,"phone":null,"address":null,"osmType":"node","osmId":663869288}},{"type":"Feature","geometry":{"type":"Point","coordinates":[-123.29833,48.40833]},"properties":{"name":"Mouat Reef","country":"Canada","website":"http://www.dive-links.com/tauchplatz.php?id=1909","opening_hours":null,"capacity":null,"phone":null,"address":null,"osmType":"node","osmId":663869289}},{"type":"Feature","geometry":{"type":"Point","coordinates":[-123.505,48.55833]},"properties":{"name":"McKenzie Bright","country":"Canada","website":"http://www.dive-links.com/tauchplatz.php?id=1920","opening_hours":null,"capacity":null,"phone":null,"address":null,"osmType":"node","osmId":663869292}},{"type":"Feature","geometry":{"type":"Point","coordinates":[-123.48499,48.57833]},"properties":{"name":"Willis Point","country":"Canada","website":"http://www.dive-links.com/tauchplatz.php?id=1921","opening_hours":null,"capacity":null,"phone":null,"address":null,"osmType":"node","osmId":663869293}},{"type":"Feature","geometry":{"type":"Point","coordinates":[-123.48602,48.59193]},"properties":{"name":"Senanus Island","country":"Canada","website":"http://www.dive-links.com/tauchplatz.php?id=1924","opening_hours":null,"capacity":null,"phone":null,"address":null,"osmType":"node","osmId":663869294}},{"type":"Feature","geometry":{"type":"Point","coordinates":[-123.48074,48.59789]},"properties":{"name":"Henderson Point","country":"Canada","website":"http://www.dive-links.com/tauchplatz.php?id=1919","opening_hours":null,"capacity":null,"phone":null,"address":null,"osmType":"node","osmId":663869295}},{"type":"Feature","geometry":{"type":"Point","coordinates":[-123.51333,48.61833]},"properties":{"name":"Tozier Rock","country":"Canada","website":"http://www.dive-links.com/tauchplatz.php?id=1925","opening_hours":null,"capacity":null,"phone":null,"address":null,"osmType":"node","osmId":663869296}},{"type":"Feature","geometry":{"type":"Point","coordinates":[-123.53965,48.54602]},"properties":{"name":"White Lady (Repulse Rock)","country":"Canada","website":"http://www.dive-links.com/tauchplatz.php?id=1926","opening_hours":null,"capacity":null,"phone":null,"address":null,"osmType":"node","osmId":663869297}},{"type":"Feature","geometry":{"type":"Point","coordinates":[-123.48333,48.62333]},"properties":{"name":"Dyer Rocks","country":"Canada","website":"http://www.dive-links.com/tauchplatz.php?id=1927","opening_hours":null,"capacity":null,"phone":null,"address":null,"osmType":"node","osmId":663869298}},{"type":"Feature","geometry":{"type":"Point","coordinates":[-123.48833,48.68833]},"properties":{"name":"Wain Rock","country":"Canada","website":"http://www.dive-links.com/tauchplatz.php?id=1929","opening_hours":null,"capacity":null,"phone":null,"address":null,"osmType":"node","osmId":663869299}},{"type":"Feature","geometry":{"type":"Point","coordinates":[-123.435,48.70667]},"properties":{"name":"Arbutus Island","country":"Canada","website":"http://www.dive-links.com/tauchplatz.php?id=1931","opening_hours":null,"capacity":null,"phone":null,"address":null,"osmType":"node","osmId":663869300}},{"type":"Feature","geometry":{"type":"Point","coordinates":[-123.52,48.7]},"properties":{"name":"Patey Rock","country":"Canada","website":"http://www.dive-links.com/tauchplatz.php?id=1928","opening_hours":null,"capacity":null,"phone":null,"address":null,"osmType":"node","osmId":663869301}},{"type":"Feature","geometry":{"type":"Point","coordinates":[-123.28667,48.67]},"properties":{"name":"G.B. Church","country":"Canada","website":null,"opening_hours":null,"capacity":null,"phone":null,"address":null,"osmType":"node","osmId":663869306}},{"type":"Feature","geometry":{"type":"Point","coordinates":[-123.32167,48.67]},"properties":{"name":"Graham`s Wall","country":"Canada","website":"http://www.dive-links.com/tauchplatz.php?id=1933","opening_hours":null,"capacity":null,"phone":null,"address":null,"osmType":"node","osmId":663869307}},{"type":"Feature","geometry":{"type":"Point","coordinates":[-123.32833,48.67667]},"properties":{"name":"Reay Island","country":"Canada","website":"http://www.dive-links.com/tauchplatz.php?id=1944","opening_hours":null,"capacity":null,"phone":null,"address":null,"osmType":"node","osmId":663869310}},{"type":"Feature","geometry":{"type":"Point","coordinates":[-123.31667,48.69]},"properties":{"name":"Joan Rock","country":"Canada","website":"http://www.dive-links.com/tauchplatz.php?id=1942","opening_hours":null,"capacity":null,"phone":null,"address":null,"osmType":"node","osmId":663869311}},{"type":"Feature","geometry":{"type":"Point","coordinates":[-123.36667,48.67167]},"properties":{"name":"Little Group Islands","country":"Canada","website":"http://www.dive-links.com/tauchplatz.php?id=1943","opening_hours":null,"capacity":null,"phone":null,"address":null,"osmType":"node","osmId":663869312}},{"type":"Feature","geometry":{"type":"Point","coordinates":[-123.33333,48.66]},"properties":{"name":"Forest Island","country":"Canada","website":"http://www.dive-links.com/tauchplatz.php?id=1940","opening_hours":null,"capacity":null,"phone":null,"address":null,"osmType":"node","osmId":663869313}},{"type":"Feature","geometry":{"type":"Point","coordinates":[-123.27675,48.67092]},"properties":{"name":"Cooper Reef","country":"Canada","website":"http://www.dive-links.com/tauchplatz.php?id=1939","opening_hours":null,"capacity":null,"phone":null,"address":null,"osmType":"node","osmId":663869314}},{"type":"Feature","geometry":{"type":"Point","coordinates":[-123.31147,48.6653]},"properties":{"name":"Rubly Island","country":"Canada","website":"http://www.dive-links.com/tauchplatz.php?id=1936","opening_hours":null,"capacity":null,"phone":null,"address":null,"osmType":"node","osmId":663869315}},{"type":"Feature","geometry":{"type":"Point","coordinates":[-123.29368,48.68472]},"properties":{"name":"Arachne Reef","country":"Canada","website":"http://www.dive-links.com/tauchplatz.php?id=1937","opening_hours":null,"capacity":null,"phone":null,"address":null,"osmType":"node","osmId":663869316}},{"type":"Feature","geometry":{"type":"Point","coordinates":[-123.3002,48.65761]},"properties":{"name":"North Cod Reef","country":"Canada","website":"http://www.dive-links.com/tauchplatz.php?id=1935","opening_hours":null,"capacity":null,"phone":null,"address":null,"osmType":"node","osmId":663869317}},{"type":"Feature","geometry":{"type":"Point","coordinates":[-123.3,48.65333]},"properties":{"name":"South Cod Reef","country":"Canada","website":"http://www.dive-links.com/tauchplatz.php?id=1946","opening_hours":null,"capacity":null,"phone":null,"address":null,"osmType":"node","osmId":663869319}},{"type":"Feature","geometry":{"type":"Point","coordinates":[-123.33311,48.69452]},"properties":{"name":"Imrie Island","country":"Canada","website":"http://www.dive-links.com/tauchplatz.php?id=1941","opening_hours":null,"capacity":null,"phone":null,"address":null,"osmType":"node","osmId":663869320}},{"type":"Feature","geometry":{"type":"Point","coordinates":[-123.33833,48.73333]},"properties":{"name":"Canoe Rock","country":"Canada","website":"http://www.dive-links.com/tauchplatz.php?id=1938","opening_hours":null,"capacity":null,"phone":null,"address":null,"osmType":"node","osmId":663869321}},{"type":"Feature","geometry":{"type":"Point","coordinates":[-124.98366,49.6785]},"properties":{"name":"Pacific Pro Dive","country":"Canada","website":"https://biganimalencounters.com/","opening_hours":"Mo-Sa 09:30-17:30","capacity":null,"phone":"+1-250-338-6829","address":"V9N 2L4","osmType":"node","osmId":2533133166}},{"type":"Feature","geometry":{"type":"Point","coordinates":[-123.24025,49.45]},"properties":{"name":"Kelvin Grove Dive Site","country":"Canada","website":null,"opening_hours":null,"capacity":null,"phone":null,"address":null,"osmType":"node","osmId":12589860894}},{"type":"Feature","geometry":{"type":"Point","coordinates":[-123.23517,49.56027]},"properties":{"name":"Porteau Cove Diving Area","country":"Canada","website":null,"opening_hours":null,"capacity":null,"phone":null,"address":null,"osmType":"node","osmId":12589864608}},{"type":"Feature","geometry":{"type":"Point","coordinates":[-123.29161,49.37171]},"properties":{"name":"Whytecliff Park Dive Site","country":"Canada","website":null,"opening_hours":null,"capacity":null,"phone":null,"address":null,"osmType":"node","osmId":12589868010}},{"type":"Feature","geometry":{"type":"Point","coordinates":[-123.25204,49.39687]},"properties":{"name":"Ansell Point Dive Site","country":"Canada","website":null,"opening_hours":null,"capacity":null,"phone":null,"address":null,"osmType":"node","osmId":12592552419}},{"type":"Feature","geometry":{"type":"Point","coordinates":[-123.99273,49.19168]},"properties":{"name":"Nanaimo Dive Outfitters","country":"Canada","website":"https://www.nanaimodiveoutfitters.ca/","opening_hours":"Mo-Fr 10:00-17:30; Sa 09:00-17:00","capacity":null,"phone":"+1 250 756-1863","address":null,"osmType":"node","osmId":12803611100}},{"type":"Feature","geometry":{"type":"Point","coordinates":[-123.93295,49.163]},"properties":{"name":"Sundown Diving","country":"Canada","website":"https://www.sundowndiving.com/","opening_hours":null,"capacity":null,"phone":"+1 250 753-1880","address":"22 Esplanade","osmType":"way","osmId":671676674}},{"type":"Feature","geometry":{"type":"Point","coordinates":[-79.76149,43.68412]},"properties":{"name":"Brampton Scuba Instruction","country":"Canada","website":null,"opening_hours":null,"capacity":null,"phone":null,"address":null,"osmType":"node","osmId":378465832}},{"type":"Feature","geometry":{"type":"Point","coordinates":[-81.94635,41.90362]},"properties":{"name":"Little Wissahickon (Wrack)","country":"Canada","website":"http://www.dive-links.com/tauchplatz.php?id=1630","opening_hours":null,"capacity":null,"phone":null,"address":null,"osmType":"node","osmId":663869459}},{"type":"Feature","geometry":{"type":"Point","coordinates":[-81.95403,41.95908]},"properties":{"name":"Frank E. Vigor (Wrack)","country":"Canada","website":"http://www.dive-links.com/tauchplatz.php?id=1629","opening_hours":null,"capacity":null,"phone":null,"address":null,"osmType":"node","osmId":663869460}},{"type":"Feature","geometry":{"type":"Point","coordinates":[-82.16861,41.94111]},"properties":{"name":"Willis (Wrack)","country":"Canada","website":"http://www.dive-links.com/tauchplatz.php?id=1628","opening_hours":null,"capacity":null,"phone":null,"address":null,"osmType":"node","osmId":663869461}},{"type":"Feature","geometry":{"type":"Point","coordinates":[-82.94083,41.9805]},"properties":{"name":"M. I. Wilcox (Wreck)","country":"Canada","website":"http://www.dive-links.com/tauchplatz.php?id=1624","opening_hours":null,"capacity":null,"phone":null,"address":null,"osmType":"node","osmId":663869462}},{"type":"Feature","geometry":{"type":"Point","coordinates":[-82.53616,41.82288]},"properties":{"name":"Specular (Wrack)","country":"Canada","website":"http://www.dive-links.com/tauchplatz.php?id=1626","opening_hours":null,"capacity":null,"phone":null,"address":null,"osmType":"node","osmId":663869463}},{"type":"Feature","geometry":{"type":"Point","coordinates":[-82.855,41.945]},"properties":{"name":"George Worthington (Wrack)","country":"Canada","website":"http://www.dive-links.com/tauchplatz.php?id=1625","opening_hours":null,"capacity":null,"phone":null,"address":null,"osmType":"node","osmId":663869464}},{"type":"Feature","geometry":{"type":"Point","coordinates":[-82.50528,41.79166]},"properties":{"name":"Tasmania (Wrack)","country":"Canada","website":"http://www.dive-links.com/tauchplatz.php?id=1627","opening_hours":null,"capacity":null,"phone":null,"address":null,"osmType":"node","osmId":663869465}},{"type":"Feature","geometry":{"type":"Point","coordinates":[-81.88973,42.2513]},"properties":{"name":"Lycoming (Wrack)","country":"Canada","website":"http://www.dive-links.com/tauchplatz.php?id=1631","opening_hours":null,"capacity":null,"phone":null,"address":null,"osmType":"node","osmId":663869466}},{"type":"Feature","geometry":{"type":"Point","coordinates":[-82.42277,42.98552]},"properties":{"name":"A. R. Colborn and Crane (Wrack)","country":"Canada","website":"http://www.dive-links.com/tauchplatz.php?id=1622","opening_hours":null,"capacity":null,"phone":null,"address":null,"osmType":"node","osmId":663869467}},{"type":"Feature","geometry":{"type":"Point","coordinates":[-82.49581,42.69122]},"properties":{"name":"William H. Wolf (Wrack)","country":"Canada","website":"http://www.dive-links.com/tauchplatz.php?id=1623","opening_hours":null,"capacity":null,"phone":null,"address":null,"osmType":"node","osmId":663869469}},{"type":"Feature","geometry":{"type":"Point","coordinates":[-81.88834,43.4005]},"properties":{"name":"Wexford (Wrack)","country":"Canada","website":"http://www.dive-links.com/tauchplatz.php?id=1619","opening_hours":null,"capacity":null,"phone":null,"address":null,"osmType":"node","osmId":663869471}},{"type":"Feature","geometry":{"type":"Point","coordinates":[-79.15424,42.86543]},"properties":{"name":"Raleigh (Wrack)","country":"Canada","website":"http://www.dive-links.com/tauchplatz.php?id=1643","opening_hours":null,"capacity":null,"phone":null,"address":null,"osmType":"node","osmId":663869472}},{"type":"Feature","geometry":{"type":"Point","coordinates":[-80.03447,42.70283]},"properties":{"name":"Wilma (Wrack)","country":"Canada","website":"http://www.dive-links.com/tauchplatz.php?id=1640","opening_hours":null,"capacity":null,"phone":null,"address":null,"osmType":"node","osmId":663869473}},{"type":"Feature","geometry":{"type":"Point","coordinates":[-80.05241,42.65171]},"properties":{"name":"17 Fathom Wreck (Wrack)","country":"Canada","website":"http://www.dive-links.com/tauchplatz.php?id=1639","opening_hours":null,"capacity":null,"phone":null,"address":null,"osmType":"node","osmId":663869474}},{"type":"Feature","geometry":{"type":"Point","coordinates":[-79.24348,42.77103]},"properties":{"name":"C. B. Benson (Wreck)","country":"Canada","website":"http://www.dive-links.com/tauchplatz.php?id=1642","opening_hours":null,"capacity":null,"phone":null,"address":null,"osmType":"node","osmId":663869475}},{"type":"Feature","geometry":{"type":"Point","coordinates":[-80.09833,42.62667]},"properties":{"name":"Brown Brothers (Wrack)","country":"Canada","website":"http://www.dive-links.com/tauchplatz.php?id=1638","opening_hours":null,"capacity":null,"phone":null,"address":null,"osmType":"node","osmId":663869477}},{"type":"Feature","geometry":{"type":"Point","coordinates":[-80.08476,42.51033]},"properties":{"name":"Atlantic (Wrack)","country":"Canada","website":"http://www.dive-links.com/tauchplatz.php?id=1635","opening_hours":null,"capacity":null,"phone":null,"address":null,"osmType":"node","osmId":663869478}},{"type":"Feature","geometry":{"type":"Point","coordinates":[-80.20094,42.42527]},"properties":{"name":"Trade Wind (Wrack)","country":"Canada","website":"http://www.dive-links.com/tauchplatz.php?id=1634","opening_hours":null,"capacity":null,"phone":null,"address":null,"osmType":"node","osmId":663869479}},{"type":"Feature","geometry":{"type":"Point","coordinates":[-81.005,42.37667]},"properties":{"name":"Nimrod (Wrack)","country":"Canada","website":"http://www.dive-links.com/tauchplatz.php?id=1633","opening_hours":null,"capacity":null,"phone":null,"address":null,"osmType":"node","osmId":663869480}},{"type":"Feature","geometry":{"type":"Point","coordinates":[-81.34647,42.23258]},"properties":{"name":"Merida (Wrack)","country":"Canada","website":"http://www.dive-links.com/tauchplatz.php?id=1632","opening_hours":null,"capacity":null,"phone":null,"address":null,"osmType":"node","osmId":663869481}},{"type":"Feature","geometry":{"type":"Point","coordinates":[-80.09048,42.56137]},"properties":{"name":"Pascal P. Pratt (Wrack)","country":"Canada","website":"http://www.dive-links.com/tauchplatz.php?id=1637","opening_hours":null,"capacity":null,"phone":null,"address":null,"osmType":"node","osmId":663869482}},{"type":"Feature","geometry":{"type":"Point","coordinates":[-80.22813,42.76308]},"properties":{"name":"Cecil J. (Wrack)","country":"Canada","website":"http://www.dive-links.com/tauchplatz.php?id=1636","opening_hours":null,"capacity":null,"phone":null,"address":null,"osmType":"node","osmId":663869483}},{"type":"Feature","geometry":{"type":"Point","coordinates":[-79.45147,43.615]},"properties":{"name":"Sligo (Wreck)","country":"Canada","website":"http://www.dive-links.com/tauchplatz.php?id=1644","opening_hours":null,"capacity":null,"phone":null,"address":null,"osmType":"node","osmId":663869484}},{"type":"Feature","geometry":{"type":"Point","coordinates":[-80.20416,44.91611]},"properties":{"name":"Michigan (Wrack)","country":"Canada","website":"http://www.dive-links.com/tauchplatz.php?id=1605","opening_hours":null,"capacity":null,"phone":null,"address":null,"osmType":"node","osmId":663869485}},{"type":"Feature","geometry":{"type":"Point","coordinates":[-80.24382,44.86747]},"properties":{"name":"Mapledawn (Wrack)","country":"Canada","website":"http://www.dive-links.com/tauchplatz.php?id=1606","opening_hours":null,"capacity":null,"phone":null,"address":null,"osmType":"node","osmId":663869486}},{"type":"Feature","geometry":{"type":"Point","coordinates":[-80.15686,44.9113]},"properties":{"name":"Marquette (Wrack)","country":"Canada","website":"http://www.dive-links.com/tauchplatz.php?id=1603","opening_hours":null,"capacity":null,"phone":null,"address":null,"osmType":"node","osmId":663869487}},{"type":"Feature","geometry":{"type":"Point","coordinates":[-80.16283,44.9172]},"properties":{"name":"Lottie Wolf (Wrack)","country":"Canada","website":"http://www.dive-links.com/tauchplatz.php?id=1604","opening_hours":null,"capacity":null,"phone":null,"address":null,"osmType":"node","osmId":663869488}},{"type":"Feature","geometry":{"type":"Point","coordinates":[-79.86826,44.82146]},"properties":{"name":"Wawinet (Wrack)","country":"Canada","website":"http://www.dive-links.com/tauchplatz.php?id=1602","opening_hours":null,"capacity":null,"phone":null,"address":null,"osmType":"node","osmId":663869489}},{"type":"Feature","geometry":{"type":"Point","coordinates":[-76.41738,44.22573]},"properties":{"name":"Wolfe Islander II (Wrack)","country":"Canada","website":"http://www.dive-links.com/tauchplatz.php?id=1653","opening_hours":null,"capacity":null,"phone":null,"address":null,"osmType":"node","osmId":663869500}},{"type":"Feature","geometry":{"type":"Point","coordinates":[-76.60764,44.20888]},"properties":{"name":"Munson (Wrack)","country":"Canada","website":"http://www.dive-links.com/tauchplatz.php?id=1652","opening_hours":null,"capacity":null,"phone":null,"address":null,"osmType":"node","osmId":663869501}},{"type":"Feature","geometry":{"type":"Point","coordinates":[-76.58452,44.1388]},"properties":{"name":"Comet (Wrack)","country":"Canada","website":"http://www.dive-links.com/tauchplatz.php?id=1651","opening_hours":null,"capacity":null,"phone":null,"address":null,"osmType":"node","osmId":663869502}},{"type":"Feature","geometry":{"type":"Point","coordinates":[-76.6028,44.12684]},"properties":{"name":"George A. Marsh (Wrack)","country":"Canada","website":"http://www.dive-links.com/tauchplatz.php?id=1650","opening_hours":null,"capacity":null,"phone":null,"address":null,"osmType":"node","osmId":663869503}},{"type":"Feature","geometry":{"type":"Point","coordinates":[-76.60201,44.01871]},"properties":{"name":"Frontenac (Wrack)","country":"Canada","website":"http://www.dive-links.com/tauchplatz.php?id=1649","opening_hours":null,"capacity":null,"phone":null,"address":null,"osmType":"node","osmId":663869504}},{"type":"Feature","geometry":{"type":"Point","coordinates":[-76.73447,44.07597]},"properties":{"name":"City of Sheboygan (Wrack)","country":"Canada","website":"http://www.dive-links.com/tauchplatz.php?id=1648","opening_hours":null,"capacity":null,"phone":null,"address":null,"osmType":"node","osmId":663869505}},{"type":"Feature","geometry":{"type":"Point","coordinates":[-76.74216,44.00967]},"properties":{"name":"Katie Eccles (Wreck)","country":"Canada","website":"http://www.dive-links.com/tauchplatz.php?id=1647","opening_hours":null,"capacity":null,"phone":null,"address":null,"osmType":"node","osmId":663869506}},{"type":"Feature","geometry":{"type":"Point","coordinates":[-76.80167,43.96433]},"properties":{"name":"Annie Falconer (Wreck)","country":"Canada","website":"http://www.dive-links.com/tauchplatz.php?id=1646","opening_hours":null,"capacity":null,"phone":null,"address":null,"osmType":"node","osmId":663869507}},{"type":"Feature","geometry":{"type":"Point","coordinates":[-76.73667,43.93167]},"properties":{"name":"Olive Branch (Wrack)","country":"Canada","website":"http://www.dive-links.com/tauchplatz.php?id=1645","opening_hours":null,"capacity":null,"phone":null,"address":null,"osmType":"node","osmId":663869508}},{"type":"Feature","geometry":{"type":"Point","coordinates":[-75.67709,44.5893]},"properties":{"name":"Robert Gaskin (Wrack)","country":"Canada","website":"http://www.dive-links.com/tauchplatz.php?id=1658","opening_hours":null,"capacity":null,"phone":null,"address":null,"osmType":"node","osmId":663869509}},{"type":"Feature","geometry":{"type":"Point","coordinates":[-75.52717,44.69967]},"properties":{"name":"Rothesay (Shipwreck)","country":"Canada","website":"http://www.dive-links.com/tauchplatz.php?id=1659","opening_hours":null,"capacity":null,"phone":null,"address":null,"osmType":"node","osmId":663869510}},{"type":"Feature","geometry":{"type":"Point","coordinates":[-75.10111,44.92472]},"properties":{"name":"Eastcliffe Hall (Wrack)","country":"Canada","website":"http://www.dive-links.com/tauchplatz.php?id=1660","opening_hours":null,"capacity":null,"phone":null,"address":null,"osmType":"node","osmId":663869511}},{"type":"Feature","geometry":{"type":"Point","coordinates":[-74.89931,44.9975]},"properties":{"name":"Lock 21 Dive Site","country":"Canada","website":"https://www.waymarking.com/waymarks/WM83Y_LOCK_21_St_Lawrence_river","opening_hours":null,"capacity":null,"phone":null,"address":null,"osmType":"node","osmId":663869512}},{"type":"Feature","geometry":{"type":"Point","coordinates":[-75.71878,44.55618]},"properties":{"name":"Lillie Parsons (Wrack)","country":"Canada","website":"http://www.dive-links.com/tauchplatz.php?id=1657","opening_hours":null,"capacity":null,"phone":null,"address":null,"osmType":"node","osmId":663869513}},{"type":"Feature","geometry":{"type":"Point","coordinates":[-75.76258,44.5261]},"properties":{"name":"Henry C. Daryaw (Wrack)","country":"Canada","website":"http://www.dive-links.com/tauchplatz.php?id=1656","opening_hours":null,"capacity":null,"phone":null,"address":null,"osmType":"node","osmId":663869514}},{"type":"Feature","geometry":{"type":"Point","coordinates":[-85.10979,46.99887]},"properties":{"name":"Edmund Fitzgerald","country":"Canada","website":null,"opening_hours":null,"capacity":null,"phone":null,"address":null,"osmType":"node","osmId":663869533}},{"type":"Feature","geometry":{"type":"Point","coordinates":[-81.68086,45.25524]},"properties":{"name":"Sweepstakes (schooner)","country":"Canada","website":null,"opening_hours":null,"capacity":null,"phone":null,"address":null,"osmType":"node","osmId":663869535}},{"type":"Feature","geometry":{"type":"Point","coordinates":[-81.52344,45.24555]},"properties":{"name":"The Caves","country":"Canada","website":null,"opening_hours":null,"capacity":null,"phone":null,"address":null,"osmType":"node","osmId":663869536}},{"type":"Feature","geometry":{"type":"Point","coordinates":[-81.5762,45.24225]},"properties":{"name":"Caroline Rose (Schooner)","country":"Canada","website":null,"opening_hours":null,"capacity":null,"phone":null,"address":null,"osmType":"node","osmId":663869537}},{"type":"Feature","geometry":{"type":"Point","coordinates":[-81.60257,45.25003]},"properties":{"name":"Niagara II (sandsucker)","country":"Canada","website":null,"opening_hours":null,"capacity":null,"phone":null,"address":null,"osmType":"node","osmId":663869538}},{"type":"Feature","geometry":{"type":"Point","coordinates":[-81.715,45.2678]},"properties":{"name":"James C. King (Wreck)","country":"Canada","website":"http://www.dive-links.com/tauchplatz.php?id=1614","opening_hours":null,"capacity":null,"phone":null,"address":null,"osmType":"node","osmId":663869539}},{"type":"Feature","geometry":{"type":"Point","coordinates":[-81.70933,45.26557]},"properties":{"name":"W. L. Wetmore (Wreck)","country":"Canada","website":"http://www.dive-links.com/tauchplatz.php?id=1615","opening_hours":null,"capacity":null,"phone":null,"address":null,"osmType":"node","osmId":663869540}},{"type":"Feature","geometry":{"type":"Point","coordinates":[-81.66093,45.25835]},"properties":{"name":"The Tugs (Wreck)","country":"Canada","website":"http://www.dive-links.com/tauchplatz.php?id=1616","opening_hours":null,"capacity":null,"phone":null,"address":null,"osmType":"node","osmId":663869541}},{"type":"Feature","geometry":{"type":"Point","coordinates":[-81.68082,45.25488]},"properties":{"name":"City of Grand Rapids (steamer)","country":"Canada","website":null,"opening_hours":null,"capacity":null,"phone":null,"address":null,"osmType":"node","osmId":663869542}},{"type":"Feature","geometry":{"type":"Point","coordinates":[-81.55703,45.31515]},"properties":{"name":"Forest City (Wreck)","country":"Canada","website":"http://www.dive-links.com/tauchplatz.php?id=1610","opening_hours":null,"capacity":null,"phone":null,"address":null,"osmType":"node","osmId":663869543}},{"type":"Feature","geometry":{"type":"Point","coordinates":[-81.67406,45.31188]},"properties":{"name":"Arabia (Wreck)","country":"Canada","website":"http://www.dive-links.com/tauchplatz.php?id=1611","opening_hours":null,"capacity":null,"phone":null,"address":null,"osmType":"node","osmId":663869544}},{"type":"Feature","geometry":{"type":"Point","coordinates":[-81.71012,45.29425]},"properties":{"name":"Charles P. Minch (Wreck)","country":"Canada","website":"http://www.dive-links.com/tauchplatz.php?id=1612","opening_hours":null,"capacity":null,"phone":null,"address":null,"osmType":"node","osmId":663869545}},{"type":"Feature","geometry":{"type":"Point","coordinates":[-81.69721,45.26888]},"properties":{"name":"Philo Scoville (Wreck)","country":"Canada","website":"http://www.dive-links.com/tauchplatz.php?id=1613","opening_hours":null,"capacity":null,"phone":null,"address":null,"osmType":"node","osmId":663869546}},{"type":"Feature","geometry":{"type":"Point","coordinates":[-79.53194,45.06917]},"properties":{"name":"Waome (Wrack)","country":"Canada","website":"http://www.dive-links.com/tauchplatz.php?id=1601","opening_hours":null,"capacity":null,"phone":null,"address":null,"osmType":"node","osmId":663869547}},{"type":"Feature","geometry":{"type":"Point","coordinates":[-82.20237,46.06019]},"properties":{"name":"North Wind (Wrack)","country":"Canada","website":"http://www.dive-links.com/tauchplatz.php?id=1600","opening_hours":null,"capacity":null,"phone":null,"address":null,"osmType":"node","osmId":663869548}},{"type":"Feature","geometry":{"type":"Point","coordinates":[-73.75849,46.14005]},"properties":{"name":null,"country":"Canada","website":null,"opening_hours":null,"capacity":null,"phone":null,"address":null,"osmType":"node","osmId":3283247695}},{"type":"Feature","geometry":{"type":"Point","coordinates":[-71.27806,46.12861]},"properties":{"name":"Plongé","country":"Canada","website":"http://scubapedia.ca/index.php/Carriere_Flintkote","opening_hours":null,"capacity":null,"phone":null,"address":null,"osmType":"node","osmId":4083567604}},{"type":"Feature","geometry":{"type":"Point","coordinates":[-71.27045,46.13008]},"properties":{"name":"Plongé","country":"Canada","website":"http://scubapedia.ca/index.php/Carriere_Flintkote","opening_hours":null,"capacity":null,"phone":null,"address":null,"osmType":"node","osmId":4090862710}},{"type":"Feature","geometry":{"type":"Point","coordinates":[-75.67724,44.59202]},"properties":{"name":"Brockville Underwater Sculpture Park","country":"Canada","website":null,"opening_hours":null,"capacity":null,"phone":null,"address":null,"osmType":"node","osmId":6721728582}},{"type":"Feature","geometry":{"type":"Point","coordinates":[-75.39331,44.7795]},"properties":{"name":"The Conestoga","country":"Canada","website":null,"opening_hours":null,"capacity":null,"phone":null,"address":null,"osmType":"node","osmId":7814063292}},{"type":"Feature","geometry":{"type":"Point","coordinates":[-75.39956,44.77753]},"properties":{"name":"Lock 27","country":"Canada","website":null,"opening_hours":null,"capacity":null,"phone":null,"address":null,"osmType":"node","osmId":7815068452}},{"type":"Feature","geometry":{"type":"Point","coordinates":[-75.40022,44.77694]},"properties":{"name":"Wreck Wee Hawk","country":"Canada","website":"https://www.projectaware.org/debris-data/lock-28wee-hawk-wreck","opening_hours":null,"capacity":null,"phone":null,"address":null,"osmType":"node","osmId":7815068453}},{"type":"Feature","geometry":{"type":"Point","coordinates":[-73.68504,45.40283]},"properties":{"name":"Kahnawake Quarry","country":"Canada","website":null,"opening_hours":null,"capacity":null,"phone":null,"address":null,"osmType":"way","osmId":27070612}},{"type":"Feature","geometry":{"type":"Point","coordinates":[-64.0621,44.59788]},"properties":{"name":"Fox Point Beach","country":"Canada","website":null,"opening_hours":null,"capacity":null,"phone":null,"address":null,"osmType":"way","osmId":349599178}},{"type":"Feature","geometry":{"type":"Point","coordinates":[-75.72234,45.33237]},"properties":{"name":"Divers Wearhouse","country":"Canada","website":null,"opening_hours":null,"capacity":null,"phone":null,"address":"1883 Merivale Road","osmType":"way","osmId":472168675}},{"type":"Feature","geometry":{"type":"Point","coordinates":[-64.21541,48.51957]},"properties":{"name":"Pavillon des grandes marées","country":"Canada","website":"https://clubnautiqueperce.com/","opening_hours":null,"capacity":null,"phone":null,"address":"199 Route 132 OUEST, G0C 2L0","osmType":"way","osmId":598234907}},{"type":"Feature","geometry":{"type":"Point","coordinates":[-69.41246,48.31939]},"properties":{"name":null,"country":"Canada","website":null,"opening_hours":null,"capacity":null,"phone":null,"address":null,"osmType":"way","osmId":680605405}},{"type":"Feature","geometry":{"type":"Point","coordinates":[-75.17511,44.8953]},"properties":{"name":"Lock 23","country":"Canada","website":"https://morrisburgdivesites.com/tag/lock-23-morrisburg/","opening_hours":null,"capacity":null,"phone":null,"address":null,"osmType":"way","osmId":719484360}},{"type":"Feature","geometry":{"type":"Point","coordinates":[-85.11048,46.99829]},"properties":{"name":"Bow","country":"Canada","website":null,"opening_hours":null,"capacity":null,"phone":null,"address":null,"osmType":"way","osmId":847727578}},{"type":"Feature","geometry":{"type":"Point","coordinates":[-85.10925,46.9996]},"properties":{"name":"Overturned Stern","country":"Canada","website":null,"opening_hours":null,"capacity":null,"phone":null,"address":null,"osmType":"way","osmId":847727579}},{"type":"Feature","geometry":{"type":"Point","coordinates":[-85.10979,46.99884]},"properties":{"name":"Midship","country":"Canada","website":null,"opening_hours":null,"capacity":null,"phone":null,"address":null,"osmType":"way","osmId":847727580}},{"type":"Feature","geometry":{"type":"Point","coordinates":[-52.96362,47.60134]},"properties":{"name":"SS Rose Castle","country":"Canada","website":null,"opening_hours":null,"capacity":null,"phone":null,"address":null,"osmType":"node","osmId":6292677130}},{"type":"Feature","geometry":{"type":"Point","coordinates":[-52.97163,47.59946]},"properties":{"name":"PM-27","country":"Canada","website":null,"opening_hours":null,"capacity":null,"phone":null,"address":null,"osmType":"node","osmId":9802778108}},{"type":"Feature","geometry":{"type":"Point","coordinates":[-52.97851,47.5833]},"properties":{"name":"SS Saganaga","country":"Canada","website":null,"opening_hours":null,"capacity":null,"phone":null,"address":null,"osmType":"node","osmId":9802778109}},{"type":"Feature","geometry":{"type":"Point","coordinates":[-52.96815,47.58824]},"properties":{"name":"SS Lord Strathcona","country":"Canada","website":null,"opening_hours":null,"capacity":null,"phone":null,"address":null,"osmType":"node","osmId":9802778110}}]}