{"type":"FeatureCollection","features":[{"type":"Feature","geometry":{"type":"Point","coordinates":[14.45899,50.06981]},"properties":{"name":"Kapr Divers, PADI 5Star DC","country":"Czechia","website":"https://www.kaprdivers.cz/","opening_hours":"Mo 16:00-20:00; Tu 10:00-17:00; We 10:00-19:00; Th 10:00-17:00","capacity":null,"phone":null,"address":"1347/2 náměstí Svatopluka Čecha, 10100","osmType":"node","osmId":296694332}},{"type":"Feature","geometry":{"type":"Point","coordinates":[12.60742,50.28654]},"properties":{"name":"Rotava","country":"Czechia","website":"http://www.dive-links.com/tauchplatz.php?id=1308","opening_hours":null,"capacity":null,"phone":null,"address":null,"osmType":"node","osmId":663870869}},{"type":"Feature","geometry":{"type":"Point","coordinates":[12.96436,49.39165]},"properties":{"name":"Lomeček","country":"Czechia","website":null,"opening_hours":null,"capacity":null,"phone":null,"address":null,"osmType":"node","osmId":663870874}},{"type":"Feature","geometry":{"type":"Point","coordinates":[13.20743,50.57783]},"properties":{"name":"Steinbruchsee Reitzenhain","country":"Czechia","website":"http://www.dive-links.com/tauchplatz.php?id=1889","opening_hours":null,"capacity":null,"phone":null,"address":null,"osmType":"node","osmId":663870875}},{"type":"Feature","geometry":{"type":"Point","coordinates":[14.79988,50.9262]},"properties":{"name":"Eckartsberg","country":"Czechia","website":"http://www.dive-links.com/tauchplatz.php?id=1125","opening_hours":null,"capacity":null,"phone":null,"address":null,"osmType":"node","osmId":663871076}},{"type":"Feature","geometry":{"type":"Point","coordinates":[15.34555,50.66191]},"properties":{"name":"Jesenny","country":"Czechia","website":"http://www.dive-links.com/tauchplatz.php?id=1310","opening_hours":null,"capacity":null,"phone":null,"address":null,"osmType":"node","osmId":663871079}},{"type":"Feature","geometry":{"type":"Point","coordinates":[14.79928,50.92688]},"properties":{"name":"Tauchschule Eckartsberg","country":"Czechia","website":null,"opening_hours":null,"capacity":null,"phone":null,"address":null,"osmType":"node","osmId":671450574}},{"type":"Feature","geometry":{"type":"Point","coordinates":[17.65758,49.94326]},"properties":{"name":"lom - Svobodné Heřmanice","country":"Czechia","website":null,"opening_hours":null,"capacity":null,"phone":null,"address":null,"osmType":"node","osmId":963990699}},{"type":"Feature","geometry":{"type":"Point","coordinates":[17.25683,50.39189]},"properties":{"name":"Kamieniołom Nadziejów","country":"Czechia","website":null,"opening_hours":null,"capacity":null,"phone":null,"address":null,"osmType":"node","osmId":2334754158}},{"type":"Feature","geometry":{"type":"Point","coordinates":[14.44854,50.099]},"properties":{"name":"Olson","country":"Czechia","website":"https://www.olson.cz/","opening_hours":"Mo-Fr 10:00-18:00; Sa 10:00-14:00","capacity":null,"phone":"+420 220 805 300","address":"17000 Praha, CZ","osmType":"node","osmId":2651970587}},{"type":"Feature","geometry":{"type":"Point","coordinates":[15.34496,50.66254]},"properties":{"name":"Jesenný","country":"Czechia","website":null,"opening_hours":null,"capacity":null,"phone":null,"address":null,"osmType":"node","osmId":3981297192}},{"type":"Feature","geometry":{"type":"Point","coordinates":[15.8164,50.20991]},"properties":{"name":"Divecentrum CZ","country":"Czechia","website":null,"opening_hours":null,"capacity":null,"phone":null,"address":null,"osmType":"node","osmId":4936412279}},{"type":"Feature","geometry":{"type":"Point","coordinates":[14.48791,50.02219]},"properties":{"name":"Dive Travel","country":"Czechia","website":"https://potapeci.com/","opening_hours":null,"capacity":null,"phone":null,"address":null,"osmType":"node","osmId":4968764583}},{"type":"Feature","geometry":{"type":"Point","coordinates":[14.39663,50.0656]},"properties":{"name":"HappyDivers","country":"Czechia","website":null,"opening_hours":null,"capacity":null,"phone":null,"address":null,"osmType":"node","osmId":5749232705}},{"type":"Feature","geometry":{"type":"Point","coordinates":[14.40954,50.08658]},"properties":{"name":"Vltava Pod Karlovým mostem","country":"Czechia","website":null,"opening_hours":null,"capacity":null,"phone":null,"address":null,"osmType":"node","osmId":5749232706}},{"type":"Feature","geometry":{"type":"Point","coordinates":[14.42342,49.79587]},"properties":{"name":"Slapy Ždáň","country":"Czechia","website":null,"opening_hours":null,"capacity":null,"phone":null,"address":null,"osmType":"node","osmId":5749232707}},{"type":"Feature","geometry":{"type":"Point","coordinates":[14.42434,49.75737]},"properties":{"name":"Slapy Stará Živohošť","country":"Czechia","website":null,"opening_hours":null,"capacity":null,"phone":null,"address":null,"osmType":"node","osmId":5749232708}},{"type":"Feature","geometry":{"type":"Point","coordinates":[14.50289,49.66404]},"properties":{"name":"Bořená Hora","country":"Czechia","website":null,"opening_hours":null,"capacity":null,"phone":null,"address":null,"osmType":"node","osmId":5749232709}},{"type":"Feature","geometry":{"type":"Point","coordinates":[15.57771,49.79279]},"properties":{"name":"Borek","country":"Czechia","website":null,"opening_hours":null,"capacity":null,"phone":null,"address":null,"osmType":"node","osmId":5749232710}},{"type":"Feature","geometry":{"type":"Point","coordinates":[15.83833,49.7864]},"properties":{"name":"Trhová Kamenice","country":"Czechia","website":null,"opening_hours":null,"capacity":null,"phone":null,"address":null,"osmType":"node","osmId":5749232711}},{"type":"Feature","geometry":{"type":"Point","coordinates":[15.94167,49.82181]},"properties":{"name":"Mokrýšov Velká jáma","country":"Czechia","website":null,"opening_hours":null,"capacity":null,"phone":null,"address":null,"osmType":"node","osmId":5749232712}},{"type":"Feature","geometry":{"type":"Point","coordinates":[15.9412,49.82235]},"properties":{"name":"Mokrýšov Malá jáma","country":"Czechia","website":null,"opening_hours":null,"capacity":null,"phone":null,"address":null,"osmType":"node","osmId":5749232713}},{"type":"Feature","geometry":{"type":"Point","coordinates":[15.96857,49.84321]},"properties":{"name":"Zvěřinov","country":"Czechia","website":null,"opening_hours":null,"capacity":null,"phone":null,"address":null,"osmType":"node","osmId":5749232715}},{"type":"Feature","geometry":{"type":"Point","coordinates":[15.97383,49.84122]},"properties":{"name":"Leštinka","country":"Czechia","website":null,"opening_hours":null,"capacity":null,"phone":null,"address":null,"osmType":"node","osmId":5749232716}},{"type":"Feature","geometry":{"type":"Point","coordinates":[15.49519,50.46551]},"properties":{"name":"Rumchalpa","country":"Czechia","website":null,"opening_hours":null,"capacity":null,"phone":null,"address":null,"osmType":"node","osmId":5749232717}},{"type":"Feature","geometry":{"type":"Point","coordinates":[14.38145,50.13101]},"properties":{"name":"ALEA Divers, PADI 5star Dive Center","country":"Czechia","website":"https://www.aleadivers.cz/","opening_hours":null,"capacity":null,"phone":"+420602522355","address":"131/10 Kamýcká, 16500 Praha","osmType":"node","osmId":9700145844}},{"type":"Feature","geometry":{"type":"Point","coordinates":[16.51521,49.23819]},"properties":{"name":"potapěčský klub Lachtan Brno","country":"Czechia","website":"https://www.lachtanbrno.cz/","opening_hours":null,"capacity":null,"phone":null,"address":null,"osmType":"node","osmId":13096045888}},{"type":"Feature","geometry":{"type":"Point","coordinates":[15.78018,50.03181]},"properties":{"name":"Klub potápěčů Pardubice","country":"Czechia","website":"https://kppce.pageride.cz/","opening_hours":null,"capacity":null,"phone":"420 731 542 772","address":"812 Anenská, 53002 Pardubice","osmType":"node","osmId":13322918959}}]}