{"type":"FeatureCollection","features":[{"type":"Feature","geometry":{"type":"Point","coordinates":[-0.80973,47.49783]},"properties":{"name":"Maïtaï Bécon Plongée","country":"France","website":null,"opening_hours":null,"capacity":null,"phone":null,"address":null,"osmType":"node","osmId":1470785217}},{"type":"Feature","geometry":{"type":"Point","coordinates":[-3.54824,47.86856]},"properties":{"name":"Club de Plongée","country":"France","website":null,"opening_hours":null,"capacity":null,"phone":null,"address":null,"osmType":"node","osmId":1714838939}},{"type":"Feature","geometry":{"type":"Point","coordinates":[-3.48493,48.83165]},"properties":{"name":"Ploum'Aqua","country":"France","website":null,"opening_hours":null,"capacity":null,"phone":null,"address":null,"osmType":"node","osmId":2294651410}},{"type":"Feature","geometry":{"type":"Point","coordinates":[-4.49615,48.22233]},"properties":{"name":"Centre de Plongée I.S.A.","country":"France","website":null,"opening_hours":null,"capacity":null,"phone":null,"address":null,"osmType":"node","osmId":2937587806}},{"type":"Feature","geometry":{"type":"Point","coordinates":[-2.84592,47.54714]},"properties":{"name":"Club de plongée allo plongée","country":"France","website":null,"opening_hours":null,"capacity":null,"phone":null,"address":null,"osmType":"node","osmId":2937587811}},{"type":"Feature","geometry":{"type":"Point","coordinates":[-3.20687,47.65973]},"properties":{"name":"Club subaquatique","country":"France","website":null,"opening_hours":null,"capacity":null,"phone":null,"address":null,"osmType":"node","osmId":2937587812}},{"type":"Feature","geometry":{"type":"Point","coordinates":[-4.4864,48.3814]},"properties":{"name":"G.M.A.P.","country":"France","website":null,"opening_hours":null,"capacity":null,"phone":null,"address":null,"osmType":"node","osmId":2937587813}},{"type":"Feature","geometry":{"type":"Point","coordinates":[-3.60938,47.77265]},"properties":{"name":"Kemperle Activités Subaquatiques","country":"France","website":null,"opening_hours":null,"capacity":null,"phone":null,"address":null,"osmType":"node","osmId":2937587814}},{"type":"Feature","geometry":{"type":"Point","coordinates":[-3.98359,47.86095]},"properties":{"name":"Site de Plongée - cale de BEG MEIL","country":"France","website":null,"opening_hours":null,"capacity":null,"phone":null,"address":null,"osmType":"node","osmId":2937587817}},{"type":"Feature","geometry":{"type":"Point","coordinates":[-1.6168,43.43373]},"properties":{"name":"Site de plongée de Guéthary","country":"France","website":null,"opening_hours":null,"capacity":null,"phone":null,"address":null,"osmType":"node","osmId":2937587818}},{"type":"Feature","geometry":{"type":"Point","coordinates":[-1.76956,43.3937]},"properties":{"name":"Sites de plongée de Chicharvel","country":"France","website":null,"opening_hours":null,"capacity":null,"phone":null,"address":null,"osmType":"node","osmId":2937587819}},{"type":"Feature","geometry":{"type":"Point","coordinates":[-1.61416,43.48337]},"properties":{"name":"Sites de plongée de la Basse des Esclaves","country":"France","website":null,"opening_hours":null,"capacity":null,"phone":null,"address":null,"osmType":"node","osmId":2937587820}},{"type":"Feature","geometry":{"type":"Point","coordinates":[-1.74876,43.3953]},"properties":{"name":"Erretak","country":"France","website":null,"opening_hours":null,"capacity":null,"phone":null,"address":null,"osmType":"node","osmId":2937587821}},{"type":"Feature","geometry":{"type":"Point","coordinates":[-2.2242,47.0693]},"properties":{"name":"Épave Chasseur N° 107","country":"France","website":null,"opening_hours":null,"capacity":null,"phone":null,"address":null,"osmType":"node","osmId":2937595462}},{"type":"Feature","geometry":{"type":"Point","coordinates":[-4.33939,48.09658]},"properties":{"name":"Douarnenez Aqua Club","country":"France","website":"https://www.douarnenez-aqua-club.bzh/dac","opening_hours":null,"capacity":null,"phone":null,"address":"10 Quai Marie-Agnès Péron, 29100 Douarnenez","osmType":"node","osmId":4861897321}},{"type":"Feature","geometry":{"type":"Point","coordinates":[-3.96693,48.6901]},"properties":{"name":"Club de plongée","country":"France","website":null,"opening_hours":null,"capacity":null,"phone":null,"address":null,"osmType":"node","osmId":5140819372}},{"type":"Feature","geometry":{"type":"Point","coordinates":[-2.47181,47.88661]},"properties":{"name":"Brocéliande Dive Center","country":"France","website":"http://plongeemorbihan.com","opening_hours":null,"capacity":null,"phone":"+33 6 49 83 51 09","address":"56800 Quily","osmType":"node","osmId":5746460513}},{"type":"Feature","geometry":{"type":"Point","coordinates":[-4.0815,48.19028]},"properties":{"name":"Kastellin Plongée","country":"France","website":null,"opening_hours":null,"capacity":null,"phone":null,"address":null,"osmType":"node","osmId":5868709202}},{"type":"Feature","geometry":{"type":"Point","coordinates":[-2.34632,47.25857]},"properties":{"name":"Moana Evasion","country":"France","website":null,"opening_hours":null,"capacity":null,"phone":null,"address":null,"osmType":"node","osmId":6144912748}},{"type":"Feature","geometry":{"type":"Point","coordinates":[-3.0436,47.59586]},"properties":{"name":"Immersion56","country":"France","website":"https://immersion56.com/","opening_hours":null,"capacity":null,"phone":null,"address":"1 Rue de la Drisse","osmType":"node","osmId":6621053496}},{"type":"Feature","geometry":{"type":"Point","coordinates":[-1.68465,43.39461]},"properties":{"name":"Tech Océan","country":"France","website":"https://www.tech-ocean.fr/","opening_hours":null,"capacity":null,"phone":"+33 6 16 36 11 76","address":"45 Avenue du Commandant Passicot, 64500 Ciboure","osmType":"node","osmId":7655463582}},{"type":"Feature","geometry":{"type":"Point","coordinates":[-1.68469,43.39456]},"properties":{"name":"Atlantic Pirogue","country":"France","website":"https://www.atlantic-pirogue.com/","opening_hours":null,"capacity":null,"phone":"+33 5 59 47 21 67","address":"43 Avenue du Comandant Passicot, 64500 Ciboure","osmType":"node","osmId":7673212898}},{"type":"Feature","geometry":{"type":"Point","coordinates":[-4.56099,48.59765]},"properties":{"name":"Aber Wrac'h Plongée","country":"France","website":"http://www.aberwrachplongee.com/","opening_hours":null,"capacity":null,"phone":"+33 677784515","address":"29870 Landéda, FR","osmType":"node","osmId":7853835793}},{"type":"Feature","geometry":{"type":"Point","coordinates":[-0.5221,47.47788]},"properties":{"name":"La Bulle","country":"France","website":"https://labulle49.com/","opening_hours":null,"capacity":null,"phone":null,"address":null,"osmType":"node","osmId":9124295870}},{"type":"Feature","geometry":{"type":"Point","coordinates":[-0.62729,49.34093]},"properties":{"name":"Yacht Club Plongée Arromanches Courseulles","country":"France","website":"https://arromanches-plongees-epaves.fr/","opening_hours":null,"capacity":null,"phone":null,"address":null,"osmType":"node","osmId":10796680769}},{"type":"Feature","geometry":{"type":"Point","coordinates":[-3.90744,48.66929]},"properties":{"name":"Carantec Plongée","country":"France","website":null,"opening_hours":null,"capacity":null,"phone":null,"address":null,"osmType":"node","osmId":11146343291}},{"type":"Feature","geometry":{"type":"Point","coordinates":[-1.8613,49.55102]},"properties":{"name":null,"country":"France","website":null,"opening_hours":null,"capacity":null,"phone":null,"address":null,"osmType":"node","osmId":11560112176}},{"type":"Feature","geometry":{"type":"Point","coordinates":[-1.03117,45.61925]},"properties":{"name":"Roc Plongée","country":"France","website":null,"opening_hours":null,"capacity":null,"phone":null,"address":null,"osmType":"way","osmId":72972952}},{"type":"Feature","geometry":{"type":"Point","coordinates":[-1.06044,47.08079]},"properties":{"name":"Du coté de Roussay","country":"France","website":null,"opening_hours":null,"capacity":null,"phone":null,"address":null,"osmType":"way","osmId":85167384}},{"type":"Feature","geometry":{"type":"Point","coordinates":[-0.51073,47.45888]},"properties":{"name":"Carrière des Frênaies","country":"France","website":null,"opening_hours":null,"capacity":null,"phone":null,"address":null,"osmType":"way","osmId":126093836}},{"type":"Feature","geometry":{"type":"Point","coordinates":[-2.02068,48.64086]},"properties":{"name":"Saint-Malo Plongée Émeraude","country":"France","website":"https://www.saintmaloplongee.com","opening_hours":null,"capacity":null,"phone":"+33 2 99 19 90 36","address":"Terre-Plein du Naye","osmType":"way","osmId":141756354}},{"type":"Feature","geometry":{"type":"Point","coordinates":[-2.40148,47.68992]},"properties":{"name":null,"country":"France","website":null,"opening_hours":null,"capacity":null,"phone":null,"address":null,"osmType":"way","osmId":177843523}},{"type":"Feature","geometry":{"type":"Point","coordinates":[-4.52772,48.36704]},"properties":{"name":"Csam Section Plongée","country":"France","website":null,"opening_hours":null,"capacity":null,"phone":null,"address":null,"osmType":"way","osmId":185527315}},{"type":"Feature","geometry":{"type":"Point","coordinates":[-1.43673,47.44101]},"properties":{"name":"Étang de la Carrière du Mont Juillet","country":"France","website":null,"opening_hours":null,"capacity":null,"phone":null,"address":null,"osmType":"way","osmId":256570394}},{"type":"Feature","geometry":{"type":"Point","coordinates":[-1.71884,43.41118]},"properties":{"name":"Belharra-Perdun","country":"France","website":null,"opening_hours":null,"capacity":null,"phone":null,"address":null,"osmType":"way","osmId":967839148}},{"type":"Feature","geometry":{"type":"Point","coordinates":[1.90082,46.43576]},"properties":{"name":"La Graule Subaquatique","country":"France","website":null,"opening_hours":null,"capacity":null,"phone":null,"address":null,"osmType":"node","osmId":521836264}},{"type":"Feature","geometry":{"type":"Point","coordinates":[2.07516,47.22594]},"properties":{"name":"Berry Plongée","country":"France","website":null,"opening_hours":null,"capacity":null,"phone":null,"address":null,"osmType":"node","osmId":530563260}},{"type":"Feature","geometry":{"type":"Point","coordinates":[8.68693,42.10193]},"properties":{"name":"Canadair Wreck","country":"France","website":"http://www.dive-links.com/tauchplatz.php?id=1424","opening_hours":null,"capacity":null,"phone":null,"address":null,"osmType":"node","osmId":663869692}},{"type":"Feature","geometry":{"type":"Point","coordinates":[6.90488,43.42218]},"properties":{"name":"Pinassen","country":"France","website":"http://www.dive-links.com/tauchplatz.php?id=1421","opening_hours":null,"capacity":null,"phone":null,"address":null,"osmType":"node","osmId":663869698}},{"type":"Feature","geometry":{"type":"Point","coordinates":[6.24091,46.30359]},"properties":{"name":"Plage d'Hermance","country":"France","website":"http://www.dive-links.com/tauchplatz.php?id=2353","opening_hours":null,"capacity":null,"phone":null,"address":null,"osmType":"node","osmId":663869959}},{"type":"Feature","geometry":{"type":"Point","coordinates":[6.16356,46.26385]},"properties":{"name":"Lac Léman-Le Boesch","country":"France","website":null,"opening_hours":null,"capacity":null,"phone":null,"address":null,"osmType":"node","osmId":663869960}},{"type":"Feature","geometry":{"type":"Point","coordinates":[6.16355,46.26384]},"properties":{"name":"Lac Léman-Le Creux-de-Genthod","country":"France","website":null,"opening_hours":null,"capacity":null,"phone":null,"address":null,"osmType":"node","osmId":663869961}},{"type":"Feature","geometry":{"type":"Point","coordinates":[6.16355,46.26385]},"properties":{"name":"Lac Léman-Le Paradis","country":"France","website":null,"opening_hours":null,"capacity":null,"phone":null,"address":null,"osmType":"node","osmId":663869962}},{"type":"Feature","geometry":{"type":"Point","coordinates":[4.57937,47.85976]},"properties":{"name":"Douix de Châtillon","country":"France","website":null,"opening_hours":null,"capacity":null,"phone":null,"address":null,"osmType":"node","osmId":764536299}},{"type":"Feature","geometry":{"type":"Point","coordinates":[1.5845,44.79026]},"properties":{"name":"Gouffre de Cabouy","country":"France","website":null,"opening_hours":null,"capacity":null,"phone":null,"address":null,"osmType":"node","osmId":796228861}},{"type":"Feature","geometry":{"type":"Point","coordinates":[3.77691,43.43374]},"properties":{"name":"Plongée Passion","country":"France","website":null,"opening_hours":null,"capacity":null,"phone":"+33 4 67 18 40 80","address":"1 Avenue Ferdinand de Lesseps, 34110 Frontignan, FR","osmType":"node","osmId":1305757871}},{"type":"Feature","geometry":{"type":"Point","coordinates":[4.29429,46.64303]},"properties":{"name":null,"country":"France","website":null,"opening_hours":null,"capacity":null,"phone":null,"address":null,"osmType":"node","osmId":1427342724}},{"type":"Feature","geometry":{"type":"Point","coordinates":[5.31924,43.35704]},"properties":{"name":"Société Nautique Estaque Mourepiane","country":"France","website":"http://snemplongee.zeblog.com/","opening_hours":null,"capacity":null,"phone":null,"address":null,"osmType":"node","osmId":1486024677}},{"type":"Feature","geometry":{"type":"Point","coordinates":[6.85397,43.43382]},"properties":{"name":"Club de plongée d'Agay","country":"France","website":"https://agay-plongee.fr/","opening_hours":null,"capacity":null,"phone":"+33 4 94 82 02 03","address":null,"osmType":"node","osmId":1536682856}},{"type":"Feature","geometry":{"type":"Point","coordinates":[5.31232,43.3613]},"properties":{"name":"Le Doris Plongée","country":"France","website":"http://le.doris.free.fr/","opening_hours":null,"capacity":null,"phone":null,"address":null,"osmType":"node","osmId":1669070691}},{"type":"Feature","geometry":{"type":"Point","coordinates":[1.60215,46.46068]},"properties":{"name":"Carrière d'Éguzon","country":"France","website":null,"opening_hours":null,"capacity":null,"phone":null,"address":null,"osmType":"node","osmId":1980997948}},{"type":"Feature","geometry":{"type":"Point","coordinates":[1.33788,46.20999]},"properties":{"name":"Carrière de Montulat","country":"France","website":null,"opening_hours":null,"capacity":null,"phone":null,"address":null,"osmType":"node","osmId":1983334434}},{"type":"Feature","geometry":{"type":"Point","coordinates":[8.81734,41.62913]},"properties":{"name":"Campomoro Plongée","country":"France","website":"http://www.campomoro-plongee.com/","opening_hours":null,"capacity":null,"phone":null,"address":null,"osmType":"node","osmId":2272969690}},{"type":"Feature","geometry":{"type":"Point","coordinates":[6.14952,45.89766]},"properties":{"name":"Le France","country":"France","website":null,"opening_hours":null,"capacity":null,"phone":null,"address":null,"osmType":"node","osmId":2366251593}},{"type":"Feature","geometry":{"type":"Point","coordinates":[3.4103,44.36691]},"properties":{"name":"Fontaine de la Burle","country":"France","website":null,"opening_hours":null,"capacity":null,"phone":null,"address":null,"osmType":"node","osmId":2411637407}},{"type":"Feature","geometry":{"type":"Point","coordinates":[5.84243,45.79789]},"properties":{"name":"Tombant de Chindrieu/Châtillon","country":"France","website":null,"opening_hours":null,"capacity":null,"phone":null,"address":null,"osmType":"node","osmId":2478780037}},{"type":"Feature","geometry":{"type":"Point","coordinates":[6.10012,45.73293]},"properties":{"name":"Porche des Eaux Mortes","country":"France","website":null,"opening_hours":null,"capacity":null,"phone":null,"address":null,"osmType":"node","osmId":2479039407}},{"type":"Feature","geometry":{"type":"Point","coordinates":[6.102,45.73715]},"properties":{"name":"Grotte de Bange (Entrée S)","country":"France","website":null,"opening_hours":null,"capacity":null,"phone":null,"address":null,"osmType":"node","osmId":2496713124}},{"type":"Feature","geometry":{"type":"Point","coordinates":[5.34648,43.31007]},"properties":{"name":"Saint Dominique","country":"France","website":null,"opening_hours":null,"capacity":null,"phone":null,"address":null,"osmType":"node","osmId":2549678062}},{"type":"Feature","geometry":{"type":"Point","coordinates":[6.14208,45.89077]},"properties":{"name":"Arbre à brochets","country":"France","website":null,"opening_hours":null,"capacity":null,"phone":null,"address":null,"osmType":"node","osmId":2549942053}},{"type":"Feature","geometry":{"type":"Point","coordinates":[5.54339,45.79414]},"properties":{"name":"Exsurgence du Perthuis","country":"France","website":"https://www.grottocenter.org/html/file_De.php?category=entry&id=412","opening_hours":null,"capacity":null,"phone":null,"address":null,"osmType":"node","osmId":2727077775}},{"type":"Feature","geometry":{"type":"Point","coordinates":[1.59327,44.79091]},"properties":{"name":"Gouffre de Poumayssen","country":"France","website":null,"opening_hours":null,"capacity":null,"phone":null,"address":null,"osmType":"node","osmId":2990625416}},{"type":"Feature","geometry":{"type":"Point","coordinates":[1.61906,44.88947]},"properties":{"name":"Fontaine Saint-Georges","country":"France","website":null,"opening_hours":null,"capacity":null,"phone":null,"address":null,"osmType":"node","osmId":3024194905}},{"type":"Feature","geometry":{"type":"Point","coordinates":[1.6149,44.8793]},"properties":{"name":"Source de la Finou","country":"France","website":null,"opening_hours":null,"capacity":null,"phone":null,"address":null,"osmType":"node","osmId":3024206446}},{"type":"Feature","geometry":{"type":"Point","coordinates":[1.49011,44.84678]},"properties":{"name":"Source de Combe Nègre","country":"France","website":null,"opening_hours":null,"capacity":null,"phone":null,"address":null,"osmType":"node","osmId":3024484145}},{"type":"Feature","geometry":{"type":"Point","coordinates":[1.76501,44.54011]},"properties":{"name":"Marche-Pied","country":"France","website":null,"opening_hours":null,"capacity":null,"phone":null,"address":null,"osmType":"node","osmId":3024534806}},{"type":"Feature","geometry":{"type":"Point","coordinates":[1.69883,44.45727]},"properties":{"name":"Crégols","country":"France","website":null,"opening_hours":null,"capacity":null,"phone":null,"address":null,"osmType":"node","osmId":3024648993}},{"type":"Feature","geometry":{"type":"Point","coordinates":[1.86566,44.48769]},"properties":{"name":"Résurgence de la Landenouse","country":"France","website":null,"opening_hours":null,"capacity":null,"phone":null,"address":null,"osmType":"node","osmId":3024804118}},{"type":"Feature","geometry":{"type":"Point","coordinates":[2.27476,48.90498]},"properties":{"name":"École de Plongée","country":"France","website":null,"opening_hours":null,"capacity":null,"phone":null,"address":null,"osmType":"node","osmId":3613604431}},{"type":"Feature","geometry":{"type":"Point","coordinates":[1.67011,44.52144]},"properties":{"name":"Émergence de la Pescalerie","country":"France","website":null,"opening_hours":null,"capacity":null,"phone":null,"address":null,"osmType":"node","osmId":3648765071}},{"type":"Feature","geometry":{"type":"Point","coordinates":[1.5433,44.85169]},"properties":{"name":"Émergence de Meyraguet","country":"France","website":null,"opening_hours":null,"capacity":null,"phone":null,"address":null,"osmType":"node","osmId":3649148443}},{"type":"Feature","geometry":{"type":"Point","coordinates":[1.75422,44.45078]},"properties":{"name":"Trou Madame","country":"France","website":null,"opening_hours":null,"capacity":null,"phone":null,"address":null,"osmType":"node","osmId":3771900297}},{"type":"Feature","geometry":{"type":"Point","coordinates":[1.69435,44.57133]},"properties":{"name":"Centre de Plongée Souterraine","country":"France","website":"https://www.lotcavediving.eu/","opening_hours":null,"capacity":null,"phone":"+33 6 45 63 94 37","address":null,"osmType":"node","osmId":3842620651}},{"type":"Feature","geometry":{"type":"Point","coordinates":[5.87119,45.75865]},"properties":{"name":"Pierre à Bise","country":"France","website":null,"opening_hours":null,"capacity":null,"phone":null,"address":null,"osmType":"node","osmId":4075346913}},{"type":"Feature","geometry":{"type":"Point","coordinates":[1.79463,44.50957]},"properties":{"name":"Source du Tirondel","country":"France","website":null,"opening_hours":null,"capacity":null,"phone":null,"address":null,"osmType":"node","osmId":4146806933}},{"type":"Feature","geometry":{"type":"Point","coordinates":[3.92877,43.52747]},"properties":{"name":"Ecosystem Centre De Plongée","country":"France","website":null,"opening_hours":null,"capacity":null,"phone":null,"address":null,"osmType":"node","osmId":4262592490}},{"type":"Feature","geometry":{"type":"Point","coordinates":[1.55079,44.82502]},"properties":{"name":"Font del Truffe","country":"France","website":null,"opening_hours":null,"capacity":null,"phone":null,"address":null,"osmType":"node","osmId":4286676101}},{"type":"Feature","geometry":{"type":"Point","coordinates":[6.66644,43.23275]},"properties":{"name":"Sèche Salagru","country":"France","website":null,"opening_hours":null,"capacity":null,"phone":null,"address":null,"osmType":"node","osmId":4290467468}},{"type":"Feature","geometry":{"type":"Point","coordinates":[5.76943,45.34959]},"properties":{"name":"Grotte de la Passerelle","country":"France","website":null,"opening_hours":null,"capacity":null,"phone":null,"address":null,"osmType":"node","osmId":4543550376}},{"type":"Feature","geometry":{"type":"Point","coordinates":[4.441,44.2521]},"properties":{"name":"Source de Marnade","country":"France","website":null,"opening_hours":null,"capacity":null,"phone":null,"address":null,"osmType":"node","osmId":4543573870}},{"type":"Feature","geometry":{"type":"Point","coordinates":[1.47372,43.61089]},"properties":{"name":"ASPTT Toulouse Plongée","country":"France","website":"http://www.asptt-plongee.fr/","opening_hours":null,"capacity":null,"phone":null,"address":"47 Rue de Soupetard, 31500 Toulouse","osmType":"node","osmId":4817971493}},{"type":"Feature","geometry":{"type":"Point","coordinates":[3.20953,44.12076]},"properties":{"name":"Source de l'Esperelle","country":"France","website":null,"opening_hours":null,"capacity":null,"phone":null,"address":null,"osmType":"node","osmId":4846565493}},{"type":"Feature","geometry":{"type":"Point","coordinates":[5.23963,43.33138]},"properties":{"name":"Baume Rousse","country":"France","website":null,"opening_hours":null,"capacity":null,"phone":null,"address":null,"osmType":"node","osmId":4870148960}},{"type":"Feature","geometry":{"type":"Point","coordinates":[5.21975,43.32811]},"properties":{"name":null,"country":"France","website":null,"opening_hours":null,"capacity":null,"phone":null,"address":null,"osmType":"node","osmId":4870148961}},{"type":"Feature","geometry":{"type":"Point","coordinates":[3.45889,43.27407]},"properties":{"name":"Site de Plongée Le Sentier Sous Marin","country":"France","website":null,"opening_hours":null,"capacity":null,"phone":null,"address":null,"osmType":"node","osmId":5026935010}},{"type":"Feature","geometry":{"type":"Point","coordinates":[5.87022,45.76151]},"properties":{"name":"Site de plongée de Challière","country":"France","website":null,"opening_hours":null,"capacity":null,"phone":null,"address":null,"osmType":"node","osmId":5647961621}},{"type":"Feature","geometry":{"type":"Point","coordinates":[8.64639,42.40694]},"properties":{"name":"L'Incantu","country":"France","website":null,"opening_hours":null,"capacity":null,"phone":null,"address":null,"osmType":"node","osmId":5865392907}},{"type":"Feature","geometry":{"type":"Point","coordinates":[5.86192,45.69593]},"properties":{"name":"Tête de la vache","country":"France","website":null,"opening_hours":null,"capacity":null,"phone":null,"address":null,"osmType":"node","osmId":6263106016}},{"type":"Feature","geometry":{"type":"Point","coordinates":[3.85387,43.8767]},"properties":{"name":"Foux de Pompignan","country":"France","website":null,"opening_hours":null,"capacity":null,"phone":null,"address":null,"osmType":"node","osmId":6524269588}},{"type":"Feature","geometry":{"type":"Point","coordinates":[7.13822,43.54595]},"properties":{"name":null,"country":"France","website":null,"opening_hours":null,"capacity":null,"phone":null,"address":null,"osmType":"node","osmId":6685551848}},{"type":"Feature","geometry":{"type":"Point","coordinates":[6.68651,43.31478]},"properties":{"name":"Tombant des Sardinaux","country":"France","website":null,"opening_hours":null,"capacity":null,"phone":null,"address":null,"osmType":"node","osmId":6690818897}},{"type":"Feature","geometry":{"type":"Point","coordinates":[6.68531,43.31272]},"properties":{"name":"Rocher de la Garde (les Sardinaux)","country":"France","website":null,"opening_hours":null,"capacity":null,"phone":null,"address":null,"osmType":"node","osmId":6690818907}},{"type":"Feature","geometry":{"type":"Point","coordinates":[6.68509,43.31028]},"properties":{"name":"Sèche à l'Huile (les Sardinaux)","country":"France","website":null,"opening_hours":null,"capacity":null,"phone":null,"address":null,"osmType":"node","osmId":6690818908}},{"type":"Feature","geometry":{"type":"Point","coordinates":[6.68867,43.28113]},"properties":{"name":"Roche Michel","country":"France","website":"https://www.observatoire-marin.com/","opening_hours":null,"capacity":null,"phone":null,"address":null,"osmType":"node","osmId":6690818918}},{"type":"Feature","geometry":{"type":"Point","coordinates":[6.6813,43.2854]},"properties":{"name":"Rabiou, Arche","country":"France","website":"https://www.observatoire-marin.com/","opening_hours":null,"capacity":null,"phone":null,"address":null,"osmType":"node","osmId":6690818919}},{"type":"Feature","geometry":{"type":"Point","coordinates":[6.68337,43.28533]},"properties":{"name":"Rabiou, La Cathédrale","country":"France","website":"https://www.observatoire-marin.com/","opening_hours":null,"capacity":null,"phone":null,"address":null,"osmType":"node","osmId":6690818920}},{"type":"Feature","geometry":{"type":"Point","coordinates":[6.50835,43.15342]},"properties":{"name":"Dattier","country":"France","website":"https://www.observatoire-marin.com/","opening_hours":null,"capacity":null,"phone":null,"address":null,"osmType":"node","osmId":6690818933}},{"type":"Feature","geometry":{"type":"Point","coordinates":[6.54424,43.17381]},"properties":{"name":"Ramon Membru","country":"France","website":"http://greec.free.fr/diaporama/ramon%20membru/ramon%20membru.htm","opening_hours":null,"capacity":null,"phone":null,"address":null,"osmType":"node","osmId":6694619324}},{"type":"Feature","geometry":{"type":"Point","coordinates":[2.77466,44.19722]},"properties":{"name":"Pongée Nature","country":"France","website":"http://ok-plongee-nature.fr/","opening_hours":null,"capacity":null,"phone":"+33 7 81 18 33 05","address":null,"osmType":"node","osmId":6855701683}},{"type":"Feature","geometry":{"type":"Point","coordinates":[2.28658,48.7438]},"properties":{"name":"Espace plongée du centre aquatique Pajeaud","country":"France","website":"https://www.ville-antony.fr/espace-plongee","opening_hours":"Mo-Fr 10:00-23:00; Sa,Su 10:00-19:00","capacity":null,"phone":"+33 1 40 96 64 55","address":"104 Rue Adolphe Pajeaud, Antony","osmType":"node","osmId":7062879959}},{"type":"Feature","geometry":{"type":"Point","coordinates":[5.68089,46.18199]},"properties":{"name":"Essential Diving","country":"France","website":"https://essentialdiving.fr/","opening_hours":"Mo-Sa 10:00-19:00","capacity":null,"phone":"+33 7 60 50 08 73","address":"1bis Rue des Combes, 01130 Charix","osmType":"node","osmId":9240549010}},{"type":"Feature","geometry":{"type":"Point","coordinates":[2.89844,42.66984]},"properties":{"name":"Odyssub","country":"France","website":null,"opening_hours":"Tu-Sa 09:30-12:00,14:30-19:00","capacity":null,"phone":null,"address":null,"osmType":"node","osmId":9551489746}},{"type":"Feature","geometry":{"type":"Point","coordinates":[2.27982,49.13597]},"properties":{"name":null,"country":"France","website":null,"opening_hours":null,"capacity":null,"phone":null,"address":null,"osmType":"node","osmId":9915825142}},{"type":"Feature","geometry":{"type":"Point","coordinates":[2.27873,49.13673]},"properties":{"name":null,"country":"France","website":null,"opening_hours":null,"capacity":null,"phone":null,"address":null,"osmType":"node","osmId":9915825143}},{"type":"Feature","geometry":{"type":"Point","coordinates":[2.27876,49.13717]},"properties":{"name":null,"country":"France","website":null,"opening_hours":null,"capacity":null,"phone":null,"address":null,"osmType":"node","osmId":9915825144}},{"type":"Feature","geometry":{"type":"Point","coordinates":[2.27822,49.13769]},"properties":{"name":null,"country":"France","website":null,"opening_hours":null,"capacity":null,"phone":null,"address":null,"osmType":"node","osmId":9915825145}},{"type":"Feature","geometry":{"type":"Point","coordinates":[7.41748,43.73017]},"properties":{"name":"CESMM","country":"France","website":"https://cesmm.com/","opening_hours":null,"capacity":null,"phone":"+37799903883","address":"MC","osmType":"node","osmId":9919108671}},{"type":"Feature","geometry":{"type":"Point","coordinates":[3.70018,43.42463]},"properties":{"name":"Le ponton de la bordelaise","country":"France","website":null,"opening_hours":null,"capacity":null,"phone":null,"address":null,"osmType":"node","osmId":9948901369}},{"type":"Feature","geometry":{"type":"Point","coordinates":[3.7108,48.55668]},"properties":{"name":"Blue Luve","country":"France","website":null,"opening_hours":null,"capacity":null,"phone":null,"address":null,"osmType":"node","osmId":10079820717}},{"type":"Feature","geometry":{"type":"Point","coordinates":[1.6536,44.49389]},"properties":{"name":"Goule de Marcenac","country":"France","website":null,"opening_hours":null,"capacity":null,"phone":null,"address":null,"osmType":"node","osmId":11138359901}},{"type":"Feature","geometry":{"type":"Point","coordinates":[3.97501,43.54327]},"properties":{"name":"Andromède","country":"France","website":"https://andromedeplongeebio.com/","opening_hours":null,"capacity":null,"phone":null,"address":null,"osmType":"node","osmId":11987051367}},{"type":"Feature","geometry":{"type":"Point","coordinates":[3.70442,43.40865]},"properties":{"name":"Pesca Sète","country":"France","website":null,"opening_hours":null,"capacity":null,"phone":"+33 4 99 02 88 89","address":null,"osmType":"node","osmId":12356157969}},{"type":"Feature","geometry":{"type":"Point","coordinates":[4.83003,45.7327]},"properties":{"name":"Plongée - Lyon Sport Métropole","country":"France","website":"https://plongee.lyonsportmetropole.org/","opening_hours":null,"capacity":null,"phone":null,"address":"207 Rue Marcel Mérieux","osmType":"node","osmId":12862472160}},{"type":"Feature","geometry":{"type":"Point","coordinates":[8.7277,42.58195]},"properties":{"name":null,"country":"France","website":null,"opening_hours":null,"capacity":null,"phone":null,"address":null,"osmType":"node","osmId":13149122311}},{"type":"Feature","geometry":{"type":"Point","coordinates":[8.79879,42.60152]},"properties":{"name":null,"country":"France","website":null,"opening_hours":null,"capacity":null,"phone":null,"address":null,"osmType":"node","osmId":13149126807}},{"type":"Feature","geometry":{"type":"Point","coordinates":[8.84009,42.6227]},"properties":{"name":null,"country":"France","website":null,"opening_hours":null,"capacity":null,"phone":null,"address":null,"osmType":"node","osmId":13149129876}},{"type":"Feature","geometry":{"type":"Point","coordinates":[4.80388,45.775]},"properties":{"name":"Thalassa Lyon Plongée","country":"France","website":"thalassalyonplongee.fr","opening_hours":null,"capacity":null,"phone":"+33 7 69 29 90 64","address":null,"osmType":"node","osmId":13162128720}},{"type":"Feature","geometry":{"type":"Point","coordinates":[2.10902,51.00359]},"properties":{"name":"Club des Smogglers","country":"France","website":null,"opening_hours":null,"capacity":null,"phone":null,"address":null,"osmType":"node","osmId":13300211219}},{"type":"Feature","geometry":{"type":"Point","coordinates":[2.21127,47.13009]},"properties":{"name":"L'Yèvre De Mer Plongée","country":"France","website":"https://lyevredemerplongee.vpdive.com/","opening_hours":"Fr 20:00-22:00","capacity":null,"phone":"+33 6 75 02 75 96","address":"187 Rue André Brému, 18500 Mehun-sur-Yèvre","osmType":"node","osmId":13718208977}},{"type":"Feature","geometry":{"type":"Point","coordinates":[0.57636,49.48665]},"properties":{"name":null,"country":"France","website":null,"opening_hours":null,"capacity":null,"phone":null,"address":null,"osmType":"way","osmId":63708534}},{"type":"Feature","geometry":{"type":"Point","coordinates":[6.81144,44.61688]},"properties":{"name":"Lac Sainte-Anne","country":"France","website":null,"opening_hours":null,"capacity":null,"phone":null,"address":null,"osmType":"way","osmId":70386352}},{"type":"Feature","geometry":{"type":"Point","coordinates":[6.87021,47.81712]},"properties":{"name":"Lac d'Alfeld","country":"France","website":null,"opening_hours":null,"capacity":null,"phone":null,"address":null,"osmType":"way","osmId":72368862}},{"type":"Feature","geometry":{"type":"Point","coordinates":[2.9585,42.85918]},"properties":{"name":"Font Estramar","country":"France","website":null,"opening_hours":null,"capacity":null,"phone":null,"address":null,"osmType":"way","osmId":84954571}},{"type":"Feature","geometry":{"type":"Point","coordinates":[4.29187,46.64147]},"properties":{"name":"Plan d'eau des Fouthiaux","country":"France","website":null,"opening_hours":null,"capacity":null,"phone":null,"address":null,"osmType":"way","osmId":129357363}},{"type":"Feature","geometry":{"type":"Point","coordinates":[5.17697,45.68372]},"properties":{"name":"Plan d'eau de Chamagnieu","country":"France","website":null,"opening_hours":null,"capacity":null,"phone":null,"address":null,"osmType":"way","osmId":142921432}},{"type":"Feature","geometry":{"type":"Point","coordinates":[1.93498,47.83464]},"properties":{"name":null,"country":"France","website":null,"opening_hours":null,"capacity":null,"phone":null,"address":null,"osmType":"way","osmId":153705215}},{"type":"Feature","geometry":{"type":"Point","coordinates":[4.84046,46.3176]},"properties":{"name":"Fosse à plongeon","country":"France","website":null,"opening_hours":null,"capacity":null,"phone":null,"address":null,"osmType":"way","osmId":160989684}},{"type":"Feature","geometry":{"type":"Point","coordinates":[2.56154,45.01489]},"properties":{"name":"Lac des Graves","country":"France","website":null,"opening_hours":null,"capacity":null,"phone":null,"address":null,"osmType":"way","osmId":168080099}},{"type":"Feature","geometry":{"type":"Point","coordinates":[5.35571,43.29502]},"properties":{"name":"GRASM - CEFERAS Centre de plongée","country":"France","website":"https://www.grasm-plongee.com/","opening_hours":null,"capacity":null,"phone":null,"address":null,"osmType":"way","osmId":179138978}},{"type":"Feature","geometry":{"type":"Point","coordinates":[5.21765,46.62347]},"properties":{"name":"Fosse à Plonger","country":"France","website":null,"opening_hours":null,"capacity":null,"phone":null,"address":null,"osmType":"way","osmId":190284057}},{"type":"Feature","geometry":{"type":"Point","coordinates":[4.42532,46.80039]},"properties":{"name":"Bassin Plongeoir","country":"France","website":null,"opening_hours":null,"capacity":null,"phone":null,"address":null,"osmType":"way","osmId":191286246}},{"type":"Feature","geometry":{"type":"Point","coordinates":[5.25786,43.33843]},"properties":{"name":"Centre UCPA - Niolon","country":"France","website":"https://ucpa.asso.fr","opening_hours":null,"capacity":null,"phone":"+33 4 91469016","address":"13740 Le Rove","osmType":"way","osmId":232529290}},{"type":"Feature","geometry":{"type":"Point","coordinates":[1.36687,44.01329]},"properties":{"name":"Fosse de Plongée","country":"France","website":null,"opening_hours":null,"capacity":null,"phone":null,"address":null,"osmType":"way","osmId":250623087}},{"type":"Feature","geometry":{"type":"Point","coordinates":[5.64126,46.25393]},"properties":{"name":null,"country":"France","website":null,"opening_hours":null,"capacity":null,"phone":null,"address":null,"osmType":"way","osmId":301168030}},{"type":"Feature","geometry":{"type":"Point","coordinates":[1.79064,44.79098]},"properties":{"name":"Le Pech de Vigne","country":"France","website":"https://lepechdevigne.fr","opening_hours":null,"capacity":null,"phone":null,"address":"530 Route du Mas Del Pech, 46500 Bio","osmType":"way","osmId":302556808}},{"type":"Feature","geometry":{"type":"Point","coordinates":[4.15643,47.38377]},"properties":{"name":null,"country":"France","website":null,"opening_hours":null,"capacity":null,"phone":null,"address":null,"osmType":"way","osmId":325944112}},{"type":"Feature","geometry":{"type":"Point","coordinates":[8.81596,41.62931]},"properties":{"name":"Torra Plongée","country":"France","website":"https://torra-plongee.com/","opening_hours":null,"capacity":null,"phone":null,"address":null,"osmType":"way","osmId":361102005}},{"type":"Feature","geometry":{"type":"Point","coordinates":[4.64102,44.37038]},"properties":{"name":"Goul du Pont","country":"France","website":null,"opening_hours":null,"capacity":null,"phone":null,"address":null,"osmType":"way","osmId":541919611}},{"type":"Feature","geometry":{"type":"Point","coordinates":[4.64131,44.36967]},"properties":{"name":"Goul de la Tannerie","country":"France","website":null,"opening_hours":null,"capacity":null,"phone":null,"address":null,"osmType":"way","osmId":541919613}},{"type":"Feature","geometry":{"type":"Point","coordinates":[6.50394,46.39896]},"properties":{"name":"Aquaventure","country":"France","website":"https://leman-explorer.com/","opening_hours":null,"capacity":null,"phone":"+33 4 50 71 48 47","address":"117 Avenue de Saint-Disdille, 74200 Thonon-les-Bains","osmType":"way","osmId":815748051}}]}