{"type":"FeatureCollection","features":[{"type":"Feature","geometry":{"type":"Point","coordinates":[-1.39285,45.98174]},"properties":{"name":"Les Joyeux Corsaires","country":"France","website":null,"opening_hours":null,"capacity":null,"phone":null,"address":null,"osmType":"node","osmId":322672765}},{"type":"Feature","geometry":{"type":"Point","coordinates":[-0.80973,47.49783]},"properties":{"name":"Maïtaï Bécon Plongée","country":"France","website":null,"opening_hours":null,"capacity":null,"phone":null,"address":null,"osmType":"node","osmId":1470785217}},{"type":"Feature","geometry":{"type":"Point","coordinates":[-3.54824,47.86856]},"properties":{"name":"Club de Plongée","country":"France","website":null,"opening_hours":null,"capacity":null,"phone":null,"address":null,"osmType":"node","osmId":1714838939}},{"type":"Feature","geometry":{"type":"Point","coordinates":[-4.5914,48.27502]},"properties":{"name":"Centre Activités Plongée","country":"France","website":null,"opening_hours":null,"capacity":null,"phone":null,"address":null,"osmType":"node","osmId":2087510743}},{"type":"Feature","geometry":{"type":"Point","coordinates":[-3.48493,48.83165]},"properties":{"name":"Ploum'Aqua","country":"France","website":null,"opening_hours":null,"capacity":null,"phone":null,"address":null,"osmType":"node","osmId":2294651410}},{"type":"Feature","geometry":{"type":"Point","coordinates":[-3.14556,47.5309]},"properties":{"name":"Centre Haliotis plongée","country":"France","website":"https://haliotisplongee.com","opening_hours":null,"capacity":null,"phone":null,"address":null,"osmType":"node","osmId":2490075225}},{"type":"Feature","geometry":{"type":"Point","coordinates":[-4.00382,47.72316]},"properties":{"name":"Centre International de Plongée- Saint-Nicolas","country":"France","website":null,"opening_hours":null,"capacity":null,"phone":null,"address":null,"osmType":"node","osmId":2937587805}},{"type":"Feature","geometry":{"type":"Point","coordinates":[-4.49615,48.22233]},"properties":{"name":"Centre de Plongée I.S.A.","country":"France","website":null,"opening_hours":null,"capacity":null,"phone":null,"address":null,"osmType":"node","osmId":2937587806}},{"type":"Feature","geometry":{"type":"Point","coordinates":[-2.84592,47.54714]},"properties":{"name":"Club de plongée allo plongée","country":"France","website":null,"opening_hours":null,"capacity":null,"phone":null,"address":null,"osmType":"node","osmId":2937587811}},{"type":"Feature","geometry":{"type":"Point","coordinates":[-3.20687,47.65973]},"properties":{"name":"Club subaquatique","country":"France","website":null,"opening_hours":null,"capacity":null,"phone":null,"address":null,"osmType":"node","osmId":2937587812}},{"type":"Feature","geometry":{"type":"Point","coordinates":[-4.4864,48.3814]},"properties":{"name":"G.M.A.P.","country":"France","website":null,"opening_hours":null,"capacity":null,"phone":null,"address":null,"osmType":"node","osmId":2937587813}},{"type":"Feature","geometry":{"type":"Point","coordinates":[-3.60938,47.77265]},"properties":{"name":"Kemperle Activités Subaquatiques","country":"France","website":null,"opening_hours":null,"capacity":null,"phone":null,"address":null,"osmType":"node","osmId":2937587814}},{"type":"Feature","geometry":{"type":"Point","coordinates":[-3.98359,47.86095]},"properties":{"name":"Site de Plongée - cale de BEG MEIL","country":"France","website":null,"opening_hours":null,"capacity":null,"phone":null,"address":null,"osmType":"node","osmId":2937587817}},{"type":"Feature","geometry":{"type":"Point","coordinates":[-1.6168,43.43373]},"properties":{"name":"Site de plongée de Guéthary","country":"France","website":null,"opening_hours":null,"capacity":null,"phone":null,"address":null,"osmType":"node","osmId":2937587818}},{"type":"Feature","geometry":{"type":"Point","coordinates":[-1.76956,43.3937]},"properties":{"name":"Sites de plongée de Chicharvel","country":"France","website":null,"opening_hours":null,"capacity":null,"phone":null,"address":null,"osmType":"node","osmId":2937587819}},{"type":"Feature","geometry":{"type":"Point","coordinates":[-1.61416,43.48337]},"properties":{"name":"Sites de plongée de la Basse des Esclaves","country":"France","website":null,"opening_hours":null,"capacity":null,"phone":null,"address":null,"osmType":"node","osmId":2937587820}},{"type":"Feature","geometry":{"type":"Point","coordinates":[-1.74876,43.3953]},"properties":{"name":"Erretak","country":"France","website":null,"opening_hours":null,"capacity":null,"phone":null,"address":null,"osmType":"node","osmId":2937587821}},{"type":"Feature","geometry":{"type":"Point","coordinates":[-2.18333,46.46528]},"properties":{"name":"Épave Afrique","country":"France","website":null,"opening_hours":null,"capacity":null,"phone":null,"address":null,"osmType":"node","osmId":2937595458}},{"type":"Feature","geometry":{"type":"Point","coordinates":[-2.41823,46.72754]},"properties":{"name":"SS Anglo-Patagonian","country":"France","website":null,"opening_hours":null,"capacity":null,"phone":null,"address":null,"osmType":"node","osmId":2937595459}},{"type":"Feature","geometry":{"type":"Point","coordinates":[-2.60405,47.08397]},"properties":{"name":"Antonos Stratos","country":"France","website":null,"opening_hours":null,"capacity":null,"phone":null,"address":null,"osmType":"node","osmId":2937595460}},{"type":"Feature","geometry":{"type":"Point","coordinates":[-2.48475,46.94081]},"properties":{"name":"Aube","country":"France","website":null,"opening_hours":null,"capacity":null,"phone":null,"address":null,"osmType":"node","osmId":2937595461}},{"type":"Feature","geometry":{"type":"Point","coordinates":[-2.2242,47.0693]},"properties":{"name":"Épave Chasseur N° 107","country":"France","website":null,"opening_hours":null,"capacity":null,"phone":null,"address":null,"osmType":"node","osmId":2937595462}},{"type":"Feature","geometry":{"type":"Point","coordinates":[-2.6982,47.32614]},"properties":{"name":"Épave Gai Littoral","country":"France","website":null,"opening_hours":null,"capacity":null,"phone":null,"address":null,"osmType":"node","osmId":2937595463}},{"type":"Feature","geometry":{"type":"Point","coordinates":[-2.26667,46.55]},"properties":{"name":"Épave John G. Mac Cullough","country":"France","website":null,"opening_hours":null,"capacity":null,"phone":null,"address":null,"osmType":"node","osmId":2937595465}},{"type":"Feature","geometry":{"type":"Point","coordinates":[-2.62987,47.2818]},"properties":{"name":"Épave Laos","country":"France","website":null,"opening_hours":null,"capacity":null,"phone":null,"address":null,"osmType":"node","osmId":2937595466}},{"type":"Feature","geometry":{"type":"Point","coordinates":[-1.68333,46.08333]},"properties":{"name":"Épave Sauerland","country":"France","website":null,"opening_hours":null,"capacity":null,"phone":null,"address":null,"osmType":"node","osmId":2937595467}},{"type":"Feature","geometry":{"type":"Point","coordinates":[-1.88215,46.41512]},"properties":{"name":"Épave bacchi","country":"France","website":null,"opening_hours":null,"capacity":null,"phone":null,"address":null,"osmType":"node","osmId":2937595468}},{"type":"Feature","geometry":{"type":"Point","coordinates":[-2.32818,46.95782]},"properties":{"name":"Giglio","country":"France","website":null,"opening_hours":null,"capacity":null,"phone":null,"address":null,"osmType":"node","osmId":3505770085}},{"type":"Feature","geometry":{"type":"Point","coordinates":[-4.33939,48.09658]},"properties":{"name":"Douarnenez Aqua Club","country":"France","website":"https://www.douarnenez-aqua-club.bzh/dac","opening_hours":null,"capacity":null,"phone":null,"address":"10 Quai Marie-Agnès Péron, 29100 Douarnenez","osmType":"node","osmId":4861897321}},{"type":"Feature","geometry":{"type":"Point","coordinates":[-3.96693,48.6901]},"properties":{"name":"Club de plongée","country":"France","website":null,"opening_hours":null,"capacity":null,"phone":null,"address":null,"osmType":"node","osmId":5140819372}},{"type":"Feature","geometry":{"type":"Point","coordinates":[-2.47181,47.88661]},"properties":{"name":"Brocéliande Dive Center","country":"France","website":"http://plongeemorbihan.com","opening_hours":null,"capacity":null,"phone":"+33 6 49 83 51 09","address":"56800 Quily","osmType":"node","osmId":5746460513}},{"type":"Feature","geometry":{"type":"Point","coordinates":[-4.0815,48.19028]},"properties":{"name":"Kastellin Plongée","country":"France","website":null,"opening_hours":null,"capacity":null,"phone":null,"address":null,"osmType":"node","osmId":5868709202}},{"type":"Feature","geometry":{"type":"Point","coordinates":[-2.34632,47.25857]},"properties":{"name":"Moana Evasion","country":"France","website":null,"opening_hours":null,"capacity":null,"phone":null,"address":null,"osmType":"node","osmId":6144912748}},{"type":"Feature","geometry":{"type":"Point","coordinates":[-3.0436,47.59586]},"properties":{"name":"Immersion56","country":"France","website":"https://immersion56.com/","opening_hours":null,"capacity":null,"phone":null,"address":"1 Rue de la Drisse","osmType":"node","osmId":6621053496}},{"type":"Feature","geometry":{"type":"Point","coordinates":[-4.27938,47.79337]},"properties":{"name":"Bigouden Ranniged Ar Mor","country":"France","website":"https://www.bramplongee.com/","opening_hours":null,"capacity":null,"phone":"+33 6 68 65 01 73","address":null,"osmType":"node","osmId":6679907330}},{"type":"Feature","geometry":{"type":"Point","coordinates":[-1.68465,43.39461]},"properties":{"name":"Tech Océan","country":"France","website":"https://www.tech-ocean.fr/","opening_hours":null,"capacity":null,"phone":"+33 6 16 36 11 76","address":"45 Avenue du Commandant Passicot, 64500 Ciboure","osmType":"node","osmId":7655463582}},{"type":"Feature","geometry":{"type":"Point","coordinates":[-1.68469,43.39456]},"properties":{"name":"Atlantic Pirogue","country":"France","website":"https://www.atlantic-pirogue.com/","opening_hours":null,"capacity":null,"phone":"+33 5 59 47 21 67","address":"43 Avenue du Comandant Passicot, 64500 Ciboure","osmType":"node","osmId":7673212898}},{"type":"Feature","geometry":{"type":"Point","coordinates":[-4.56099,48.59765]},"properties":{"name":"Aber Wrac'h Plongée","country":"France","website":"http://www.aberwrachplongee.com/","opening_hours":null,"capacity":null,"phone":"+33 677784515","address":"29870 Landéda, FR","osmType":"node","osmId":7853835793}},{"type":"Feature","geometry":{"type":"Point","coordinates":[-0.5221,47.47788]},"properties":{"name":"La Bulle","country":"France","website":"https://labulle49.com/","opening_hours":null,"capacity":null,"phone":null,"address":null,"osmType":"node","osmId":9124295870}},{"type":"Feature","geometry":{"type":"Point","coordinates":[-0.62729,49.34093]},"properties":{"name":"Yacht Club Plongée Arromanches Courseulles","country":"France","website":"https://arromanches-plongees-epaves.fr/","opening_hours":null,"capacity":null,"phone":null,"address":null,"osmType":"node","osmId":10796680769}},{"type":"Feature","geometry":{"type":"Point","coordinates":[-3.90744,48.66929]},"properties":{"name":"Carantec Plongée","country":"France","website":null,"opening_hours":null,"capacity":null,"phone":null,"address":null,"osmType":"node","osmId":11146343291}},{"type":"Feature","geometry":{"type":"Point","coordinates":[-1.8613,49.55102]},"properties":{"name":null,"country":"France","website":null,"opening_hours":null,"capacity":null,"phone":null,"address":null,"osmType":"node","osmId":11560112176}},{"type":"Feature","geometry":{"type":"Point","coordinates":[-4.55416,48.36228]},"properties":{"name":"Club Subaquatique de l'Iroise","country":"France","website":null,"opening_hours":null,"capacity":null,"phone":null,"address":"Rue Jim Sévellec, 29200 Brest","osmType":"way","osmId":42550143}},{"type":"Feature","geometry":{"type":"Point","coordinates":[-1.03117,45.61925]},"properties":{"name":"Roc Plongée","country":"France","website":null,"opening_hours":null,"capacity":null,"phone":null,"address":null,"osmType":"way","osmId":72972952}},{"type":"Feature","geometry":{"type":"Point","coordinates":[-1.06044,47.08079]},"properties":{"name":"Du coté de Roussay","country":"France","website":null,"opening_hours":null,"capacity":null,"phone":null,"address":null,"osmType":"way","osmId":85167384}},{"type":"Feature","geometry":{"type":"Point","coordinates":[-0.51073,47.45888]},"properties":{"name":"Carrière des Frênaies","country":"France","website":null,"opening_hours":null,"capacity":null,"phone":null,"address":null,"osmType":"way","osmId":126093836}},{"type":"Feature","geometry":{"type":"Point","coordinates":[-2.02068,48.64086]},"properties":{"name":"Saint-Malo Plongée Émeraude","country":"France","website":"https://www.saintmaloplongee.com","opening_hours":null,"capacity":null,"phone":"+33 2 99 19 90 36","address":"Terre-Plein du Naye","osmType":"way","osmId":141756354}},{"type":"Feature","geometry":{"type":"Point","coordinates":[-2.40148,47.68992]},"properties":{"name":null,"country":"France","website":null,"opening_hours":null,"capacity":null,"phone":null,"address":null,"osmType":"way","osmId":177843523}},{"type":"Feature","geometry":{"type":"Point","coordinates":[-4.52772,48.36704]},"properties":{"name":"Csam Section Plongée","country":"France","website":null,"opening_hours":null,"capacity":null,"phone":null,"address":null,"osmType":"way","osmId":185527315}},{"type":"Feature","geometry":{"type":"Point","coordinates":[-1.43673,47.44101]},"properties":{"name":"Étang de la Carrière du Mont Juillet","country":"France","website":null,"opening_hours":null,"capacity":null,"phone":null,"address":null,"osmType":"way","osmId":256570394}},{"type":"Feature","geometry":{"type":"Point","coordinates":[-1.71884,43.41118]},"properties":{"name":"Belharra-Perdun","country":"France","website":null,"opening_hours":null,"capacity":null,"phone":null,"address":null,"osmType":"way","osmId":967839148}},{"type":"Feature","geometry":{"type":"Point","coordinates":[-4.56819,48.35408]},"properties":{"name":null,"country":"France","website":null,"opening_hours":null,"capacity":null,"phone":null,"address":null,"osmType":"way","osmId":1474787529}},{"type":"Feature","geometry":{"type":"Point","coordinates":[1.90082,46.43576]},"properties":{"name":"La Graule Subaquatique","country":"France","website":null,"opening_hours":null,"capacity":null,"phone":null,"address":null,"osmType":"node","osmId":521836264}},{"type":"Feature","geometry":{"type":"Point","coordinates":[2.07516,47.22594]},"properties":{"name":"Berry Plongée","country":"France","website":null,"opening_hours":null,"capacity":null,"phone":null,"address":null,"osmType":"node","osmId":530563260}},{"type":"Feature","geometry":{"type":"Point","coordinates":[5.33709,43.20734]},"properties":{"name":"Le Liban","country":"France","website":"http://www.dive-links.com/tauchplatz.php?id=1286","opening_hours":null,"capacity":null,"phone":null,"address":null,"osmType":"node","osmId":663869688}},{"type":"Feature","geometry":{"type":"Point","coordinates":[8.8725,41.5225]},"properties":{"name":"Vickers Viking","country":"France","website":"http://www.dive-links.com/tauchplatz.php?id=1423","opening_hours":null,"capacity":null,"phone":null,"address":null,"osmType":"node","osmId":663869691}},{"type":"Feature","geometry":{"type":"Point","coordinates":[8.68693,42.10193]},"properties":{"name":"Canadair Wreck","country":"France","website":"http://www.dive-links.com/tauchplatz.php?id=1424","opening_hours":null,"capacity":null,"phone":null,"address":null,"osmType":"node","osmId":663869692}},{"type":"Feature","geometry":{"type":"Point","coordinates":[6.27393,42.99327]},"properties":{"name":"Wrack 'Sagona' (Le Grec)","country":"France","website":"http://www.dive-links.com/tauchplatz.php?id=1415","opening_hours":null,"capacity":null,"phone":null,"address":null,"osmType":"node","osmId":663869693}},{"type":"Feature","geometry":{"type":"Point","coordinates":[5.86973,43.04834]},"properties":{"name":"Arroyo","country":"France","website":null,"opening_hours":null,"capacity":null,"phone":null,"address":null,"osmType":"node","osmId":663869694}},{"type":"Feature","geometry":{"type":"Point","coordinates":[6.70074,43.18799]},"properties":{"name":"Rubis","country":"France","website":"http://www.dive-links.com/tauchplatz.php?id=1420","opening_hours":null,"capacity":null,"phone":null,"address":null,"osmType":"node","osmId":663869697}},{"type":"Feature","geometry":{"type":"Point","coordinates":[6.90488,43.42218]},"properties":{"name":"Pinassen","country":"France","website":"http://www.dive-links.com/tauchplatz.php?id=1421","opening_hours":null,"capacity":null,"phone":null,"address":null,"osmType":"node","osmId":663869698}},{"type":"Feature","geometry":{"type":"Point","coordinates":[6.27833,42.99412]},"properties":{"name":"Wrack 'Prosper Schiaffino' (Alias Donator)","country":"France","website":"http://www.dive-links.com/tauchplatz.php?id=1416","opening_hours":null,"capacity":null,"phone":null,"address":null,"osmType":"node","osmId":663869699}},{"type":"Feature","geometry":{"type":"Point","coordinates":[6.3611,43.02443]},"properties":{"name":"La Tantine","country":"France","website":"http://www.dive-links.com/tauchplatz.php?id=1417","opening_hours":null,"capacity":null,"phone":null,"address":null,"osmType":"node","osmId":663869700}},{"type":"Feature","geometry":{"type":"Point","coordinates":[6.39622,43.09185]},"properties":{"name":"Wildcat","country":"France","website":"http://www.dive-links.com/tauchplatz.php?id=1418","opening_hours":null,"capacity":null,"phone":null,"address":null,"osmType":"node","osmId":663869701}},{"type":"Feature","geometry":{"type":"Point","coordinates":[6.59257,43.16805]},"properties":{"name":"Togo","country":"France","website":null,"opening_hours":null,"capacity":null,"phone":null,"address":null,"osmType":"node","osmId":663869702}},{"type":"Feature","geometry":{"type":"Point","coordinates":[6.24091,46.30359]},"properties":{"name":"Plage d'Hermance","country":"France","website":"http://www.dive-links.com/tauchplatz.php?id=2353","opening_hours":null,"capacity":null,"phone":null,"address":null,"osmType":"node","osmId":663869959}},{"type":"Feature","geometry":{"type":"Point","coordinates":[6.16356,46.26385]},"properties":{"name":"Lac Léman-Le Boesch","country":"France","website":null,"opening_hours":null,"capacity":null,"phone":null,"address":null,"osmType":"node","osmId":663869960}},{"type":"Feature","geometry":{"type":"Point","coordinates":[6.16355,46.26384]},"properties":{"name":"Lac Léman-Le Creux-de-Genthod","country":"France","website":null,"opening_hours":null,"capacity":null,"phone":null,"address":null,"osmType":"node","osmId":663869961}},{"type":"Feature","geometry":{"type":"Point","coordinates":[6.16355,46.26385]},"properties":{"name":"Lac Léman-Le Paradis","country":"France","website":null,"opening_hours":null,"capacity":null,"phone":null,"address":null,"osmType":"node","osmId":663869962}},{"type":"Feature","geometry":{"type":"Point","coordinates":[9.81009,43.00208]},"properties":{"name":"Punta dello Zenòbito","country":"France","website":null,"opening_hours":null,"capacity":null,"phone":null,"address":null,"osmType":"node","osmId":670867194}},{"type":"Feature","geometry":{"type":"Point","coordinates":[6.1441,43.01147]},"properties":{"name":"Michel C","country":"France","website":null,"opening_hours":null,"capacity":null,"phone":null,"address":null,"osmType":"node","osmId":686704396}},{"type":"Feature","geometry":{"type":"Point","coordinates":[4.57937,47.85976]},"properties":{"name":"Douix de Châtillon","country":"France","website":null,"opening_hours":null,"capacity":null,"phone":null,"address":null,"osmType":"node","osmId":764536299}},{"type":"Feature","geometry":{"type":"Point","coordinates":[1.5845,44.79026]},"properties":{"name":"Gouffre de Cabouy","country":"France","website":null,"opening_hours":null,"capacity":null,"phone":null,"address":null,"osmType":"node","osmId":796228861}},{"type":"Feature","geometry":{"type":"Point","coordinates":[3.77691,43.43374]},"properties":{"name":"Plongée Passion","country":"France","website":null,"opening_hours":null,"capacity":null,"phone":"+33 4 67 18 40 80","address":"1 Avenue Ferdinand de Lesseps, 34110 Frontignan, FR","osmType":"node","osmId":1305757871}},{"type":"Feature","geometry":{"type":"Point","coordinates":[9.29563,42.98798]},"properties":{"name":"Haut Fond de Centuri","country":"France","website":null,"opening_hours":null,"capacity":null,"phone":null,"address":null,"osmType":"node","osmId":1401615236}},{"type":"Feature","geometry":{"type":"Point","coordinates":[4.29429,46.64303]},"properties":{"name":null,"country":"France","website":null,"opening_hours":null,"capacity":null,"phone":null,"address":null,"osmType":"node","osmId":1427342724}},{"type":"Feature","geometry":{"type":"Point","coordinates":[5.31924,43.35704]},"properties":{"name":"Société Nautique Estaque Mourepiane","country":"France","website":"http://snemplongee.zeblog.com/","opening_hours":null,"capacity":null,"phone":null,"address":null,"osmType":"node","osmId":1486024677}},{"type":"Feature","geometry":{"type":"Point","coordinates":[6.85397,43.43382]},"properties":{"name":"Club de plongée d'Agay","country":"France","website":"https://agay-plongee.fr/","opening_hours":null,"capacity":null,"phone":"+33 4 94 82 02 03","address":null,"osmType":"node","osmId":1536682856}},{"type":"Feature","geometry":{"type":"Point","coordinates":[5.31232,43.3613]},"properties":{"name":"Le Doris Plongée","country":"France","website":"http://le.doris.free.fr/","opening_hours":null,"capacity":null,"phone":null,"address":null,"osmType":"node","osmId":1669070691}},{"type":"Feature","geometry":{"type":"Point","coordinates":[1.60215,46.46068]},"properties":{"name":"Carrière d'Éguzon","country":"France","website":null,"opening_hours":null,"capacity":null,"phone":null,"address":null,"osmType":"node","osmId":1980997948}},{"type":"Feature","geometry":{"type":"Point","coordinates":[1.33788,46.20999]},"properties":{"name":"Carrière de Montulat","country":"France","website":null,"opening_hours":null,"capacity":null,"phone":null,"address":null,"osmType":"node","osmId":1983334434}},{"type":"Feature","geometry":{"type":"Point","coordinates":[8.81734,41.62913]},"properties":{"name":"Campomoro Plongée","country":"France","website":"http://www.campomoro-plongee.com/","opening_hours":null,"capacity":null,"phone":null,"address":null,"osmType":"node","osmId":2272969690}},{"type":"Feature","geometry":{"type":"Point","coordinates":[6.14729,43.06558]},"properties":{"name":"L'Escale","country":"France","website":null,"opening_hours":null,"capacity":null,"phone":null,"address":null,"osmType":"node","osmId":2308764347}},{"type":"Feature","geometry":{"type":"Point","coordinates":[5.79939,43.11597]},"properties":{"name":null,"country":"France","website":null,"opening_hours":null,"capacity":null,"phone":null,"address":null,"osmType":"node","osmId":2362290005}},{"type":"Feature","geometry":{"type":"Point","coordinates":[6.14952,45.89766]},"properties":{"name":"Le France","country":"France","website":null,"opening_hours":null,"capacity":null,"phone":null,"address":null,"osmType":"node","osmId":2366251593}},{"type":"Feature","geometry":{"type":"Point","coordinates":[3.4103,44.36691]},"properties":{"name":"Fontaine de la Burle","country":"France","website":null,"opening_hours":null,"capacity":null,"phone":null,"address":null,"osmType":"node","osmId":2411637407}},{"type":"Feature","geometry":{"type":"Point","coordinates":[5.34021,43.21015]},"properties":{"name":"Les fromages","country":"France","website":null,"opening_hours":null,"capacity":null,"phone":null,"address":null,"osmType":"node","osmId":2467186943}},{"type":"Feature","geometry":{"type":"Point","coordinates":[5.3379,43.20729]},"properties":{"name":"Tombant des pharillons","country":"France","website":null,"opening_hours":null,"capacity":null,"phone":null,"address":null,"osmType":"node","osmId":2467186944}},{"type":"Feature","geometry":{"type":"Point","coordinates":[5.84243,45.79789]},"properties":{"name":"Tombant de Chindrieu/Châtillon","country":"France","website":null,"opening_hours":null,"capacity":null,"phone":null,"address":null,"osmType":"node","osmId":2478780037}},{"type":"Feature","geometry":{"type":"Point","coordinates":[6.10012,45.73293]},"properties":{"name":"Porche des Eaux Mortes","country":"France","website":null,"opening_hours":null,"capacity":null,"phone":null,"address":null,"osmType":"node","osmId":2479039407}},{"type":"Feature","geometry":{"type":"Point","coordinates":[5.51291,43.20517]},"properties":{"name":"Exsurgence de Port-Miou","country":"France","website":null,"opening_hours":null,"capacity":null,"phone":null,"address":null,"osmType":"node","osmId":2479149211}},{"type":"Feature","geometry":{"type":"Point","coordinates":[6.102,45.73715]},"properties":{"name":"Grotte de Bange (Entrée S)","country":"France","website":null,"opening_hours":null,"capacity":null,"phone":null,"address":null,"osmType":"node","osmId":2496713124}},{"type":"Feature","geometry":{"type":"Point","coordinates":[5.29725,43.26637]},"properties":{"name":"Amphores du frioul","country":"France","website":null,"opening_hours":null,"capacity":null,"phone":null,"address":null,"osmType":"node","osmId":2549677982}},{"type":"Feature","geometry":{"type":"Point","coordinates":[5.22357,43.19797]},"properties":{"name":"Arche du plannier","country":"France","website":null,"opening_hours":null,"capacity":null,"phone":null,"address":null,"osmType":"node","osmId":2549677986}},{"type":"Feature","geometry":{"type":"Point","coordinates":[5.34758,43.23825]},"properties":{"name":"Boué Bora","country":"France","website":null,"opening_hours":null,"capacity":null,"phone":null,"address":null,"osmType":"node","osmId":2549677990}},{"type":"Feature","geometry":{"type":"Point","coordinates":[5.38571,43.1739]},"properties":{"name":"Calanque des Contrebandiers","country":"France","website":null,"opening_hours":null,"capacity":null,"phone":null,"address":null,"osmType":"node","osmId":2549677993}},{"type":"Feature","geometry":{"type":"Point","coordinates":[5.28575,43.26383]},"properties":{"name":"Cavau","country":"France","website":null,"opening_hours":null,"capacity":null,"phone":null,"address":null,"osmType":"node","osmId":2549677997}},{"type":"Feature","geometry":{"type":"Point","coordinates":[5.33334,43.20929]},"properties":{"name":"Cathédrale","country":"France","website":null,"opening_hours":null,"capacity":null,"phone":null,"address":null,"osmType":"node","osmId":2549678000}},{"type":"Feature","geometry":{"type":"Point","coordinates":[5.40307,43.17612]},"properties":{"name":"Grand Congloué","country":"France","website":null,"opening_hours":null,"capacity":null,"phone":null,"address":null,"osmType":"node","osmId":2549678003}},{"type":"Feature","geometry":{"type":"Point","coordinates":[5.36363,43.19682]},"properties":{"name":"Grotte Arc en Ciel","country":"France","website":null,"opening_hours":null,"capacity":null,"phone":null,"address":null,"osmType":"node","osmId":2549678007}},{"type":"Feature","geometry":{"type":"Point","coordinates":[5.36593,43.19537]},"properties":{"name":"Grotte Mystérieuse","country":"France","website":null,"opening_hours":null,"capacity":null,"phone":null,"address":null,"osmType":"node","osmId":2549678011}},{"type":"Feature","geometry":{"type":"Point","coordinates":[5.3328,43.21057]},"properties":{"name":"Grotte à corail","country":"France","website":null,"opening_hours":null,"capacity":null,"phone":null,"address":null,"osmType":"node","osmId":2549678014}},{"type":"Feature","geometry":{"type":"Point","coordinates":[5.37033,43.17673]},"properties":{"name":"Iles des moyades","country":"France","website":null,"opening_hours":null,"capacity":null,"phone":null,"address":null,"osmType":"node","osmId":2549678018}},{"type":"Feature","geometry":{"type":"Point","coordinates":[5.2867,43.27468]},"properties":{"name":"Junker 88","country":"France","website":null,"opening_hours":null,"capacity":null,"phone":null,"address":null,"osmType":"node","osmId":2549678021}},{"type":"Feature","geometry":{"type":"Point","coordinates":[5.31975,43.23093]},"properties":{"name":"La drome","country":"France","website":"https://www.wannadive.net/spot/Europe/France/Mediterranean/Marseille/Roadstead_of_Marseille/La_Drome/index.html","opening_hours":null,"capacity":null,"phone":null,"address":null,"osmType":"node","osmId":2549678025}},{"type":"Feature","geometry":{"type":"Point","coordinates":[5.22882,43.1987]},"properties":{"name":"Le Chaouen","country":"France","website":null,"opening_hours":null,"capacity":null,"phone":null,"address":null,"osmType":"node","osmId":2549678029}},{"type":"Feature","geometry":{"type":"Point","coordinates":[5.23065,43.19975]},"properties":{"name":"Le Dalton","country":"France","website":null,"opening_hours":null,"capacity":null,"phone":null,"address":null,"osmType":"node","osmId":2549678034}},{"type":"Feature","geometry":{"type":"Point","coordinates":[5.25353,43.20687]},"properties":{"name":"Les Veyrons","country":"France","website":null,"opening_hours":null,"capacity":null,"phone":null,"address":null,"osmType":"node","osmId":2549678038}},{"type":"Feature","geometry":{"type":"Point","coordinates":[5.22973,43.20013]},"properties":{"name":"Messerschmit","country":"France","website":null,"opening_hours":null,"capacity":null,"phone":null,"address":null,"osmType":"node","osmId":2549678041}},{"type":"Feature","geometry":{"type":"Point","coordinates":[5.36848,43.17807]},"properties":{"name":"Moyadons","country":"France","website":null,"opening_hours":null,"capacity":null,"phone":null,"address":null,"osmType":"node","osmId":2549678046}},{"type":"Feature","geometry":{"type":"Point","coordinates":[5.30508,43.28545]},"properties":{"name":"Nord Ratoneau","country":"France","website":null,"opening_hours":null,"capacity":null,"phone":null,"address":null,"osmType":"node","osmId":2549678049}},{"type":"Feature","geometry":{"type":"Point","coordinates":[5.36151,43.19693]},"properties":{"name":"Pierre de Briancon","country":"France","website":null,"opening_hours":null,"capacity":null,"phone":null,"address":null,"osmType":"node","osmId":2549678053}},{"type":"Feature","geometry":{"type":"Point","coordinates":[5.2843,43.2647]},"properties":{"name":"Pierre fendue","country":"France","website":null,"opening_hours":null,"capacity":null,"phone":null,"address":null,"osmType":"node","osmId":2549678056}},{"type":"Feature","geometry":{"type":"Point","coordinates":[5.39827,43.17371]},"properties":{"name":"Cala maussana","country":"France","website":null,"opening_hours":null,"capacity":null,"phone":null,"address":null,"osmType":"node","osmId":2549678059}},{"type":"Feature","geometry":{"type":"Point","coordinates":[5.34648,43.31007]},"properties":{"name":"Saint Dominique","country":"France","website":null,"opening_hours":null,"capacity":null,"phone":null,"address":null,"osmType":"node","osmId":2549678062}},{"type":"Feature","geometry":{"type":"Point","coordinates":[5.32514,43.2135]},"properties":{"name":"Tiboulen de Maire","country":"France","website":null,"opening_hours":null,"capacity":null,"phone":null,"address":null,"osmType":"node","osmId":2549678067}},{"type":"Feature","geometry":{"type":"Point","coordinates":[5.28628,43.28042]},"properties":{"name":"Tiboulen de frioul","country":"France","website":null,"opening_hours":null,"capacity":null,"phone":null,"address":null,"osmType":"node","osmId":2549678071}},{"type":"Feature","geometry":{"type":"Point","coordinates":[5.385,43.18895]},"properties":{"name":"Tunnel de planne","country":"France","website":null,"opening_hours":null,"capacity":null,"phone":null,"address":null,"osmType":"node","osmId":2549678074}},{"type":"Feature","geometry":{"type":"Point","coordinates":[6.14208,45.89077]},"properties":{"name":"Arbre à brochets","country":"France","website":null,"opening_hours":null,"capacity":null,"phone":null,"address":null,"osmType":"node","osmId":2549942053}},{"type":"Feature","geometry":{"type":"Point","coordinates":[5.54339,45.79414]},"properties":{"name":"Exsurgence du Perthuis","country":"France","website":"https://www.grottocenter.org/html/file_De.php?category=entry&id=412","opening_hours":null,"capacity":null,"phone":null,"address":null,"osmType":"node","osmId":2727077775}},{"type":"Feature","geometry":{"type":"Point","coordinates":[1.59327,44.79091]},"properties":{"name":"Gouffre de Poumayssen","country":"France","website":null,"opening_hours":null,"capacity":null,"phone":null,"address":null,"osmType":"node","osmId":2990625416}},{"type":"Feature","geometry":{"type":"Point","coordinates":[5.39614,43.17097]},"properties":{"name":"Bosse du Chameau","country":"France","website":null,"opening_hours":null,"capacity":null,"phone":null,"address":null,"osmType":"node","osmId":2990794867}},{"type":"Feature","geometry":{"type":"Point","coordinates":[5.39292,43.17289]},"properties":{"name":"Impérial de Terre","country":"France","website":null,"opening_hours":null,"capacity":null,"phone":null,"address":null,"osmType":"node","osmId":2990794868}},{"type":"Feature","geometry":{"type":"Point","coordinates":[5.39442,43.16966]},"properties":{"name":"Impérial du Large","country":"France","website":null,"opening_hours":null,"capacity":null,"phone":null,"address":null,"osmType":"node","osmId":2990794869}},{"type":"Feature","geometry":{"type":"Point","coordinates":[5.39412,43.17152]},"properties":{"name":"Impérial du Milieu","country":"France","website":null,"opening_hours":null,"capacity":null,"phone":null,"address":null,"osmType":"node","osmId":2990794870}},{"type":"Feature","geometry":{"type":"Point","coordinates":[5.39434,43.17306]},"properties":{"name":"Tombant de David","country":"France","website":null,"opening_hours":null,"capacity":null,"phone":null,"address":null,"osmType":"node","osmId":2990794871}},{"type":"Feature","geometry":{"type":"Point","coordinates":[5.45161,43.2033]},"properties":{"name":"Grotte de la Triperie","country":"France","website":null,"opening_hours":null,"capacity":null,"phone":null,"address":null,"osmType":"node","osmId":2990809754}},{"type":"Feature","geometry":{"type":"Point","coordinates":[5.45519,43.20291]},"properties":{"name":"Les Canons","country":"France","website":null,"opening_hours":null,"capacity":null,"phone":null,"address":null,"osmType":"node","osmId":2990809755}},{"type":"Feature","geometry":{"type":"Point","coordinates":[1.61906,44.88947]},"properties":{"name":"Fontaine Saint-Georges","country":"France","website":null,"opening_hours":null,"capacity":null,"phone":null,"address":null,"osmType":"node","osmId":3024194905}},{"type":"Feature","geometry":{"type":"Point","coordinates":[1.6149,44.8793]},"properties":{"name":"Source de la Finou","country":"France","website":null,"opening_hours":null,"capacity":null,"phone":null,"address":null,"osmType":"node","osmId":3024206446}},{"type":"Feature","geometry":{"type":"Point","coordinates":[1.49011,44.84678]},"properties":{"name":"Source de Combe Nègre","country":"France","website":null,"opening_hours":null,"capacity":null,"phone":null,"address":null,"osmType":"node","osmId":3024484145}},{"type":"Feature","geometry":{"type":"Point","coordinates":[1.76501,44.54011]},"properties":{"name":"Marche-Pied","country":"France","website":null,"opening_hours":null,"capacity":null,"phone":null,"address":null,"osmType":"node","osmId":3024534806}},{"type":"Feature","geometry":{"type":"Point","coordinates":[1.69883,44.45727]},"properties":{"name":"Crégols","country":"France","website":null,"opening_hours":null,"capacity":null,"phone":null,"address":null,"osmType":"node","osmId":3024648993}},{"type":"Feature","geometry":{"type":"Point","coordinates":[1.86566,44.48769]},"properties":{"name":"Résurgence de la Landenouse","country":"France","website":null,"opening_hours":null,"capacity":null,"phone":null,"address":null,"osmType":"node","osmId":3024804118}},{"type":"Feature","geometry":{"type":"Point","coordinates":[6.38603,43.10073]},"properties":{"name":"Wildcat","country":"France","website":null,"opening_hours":null,"capacity":null,"phone":null,"address":null,"osmType":"node","osmId":3135111241}},{"type":"Feature","geometry":{"type":"Point","coordinates":[2.27476,48.90498]},"properties":{"name":"École de Plongée","country":"France","website":null,"opening_hours":null,"capacity":null,"phone":null,"address":null,"osmType":"node","osmId":3613604431}},{"type":"Feature","geometry":{"type":"Point","coordinates":[1.67011,44.52144]},"properties":{"name":"Émergence de la Pescalerie","country":"France","website":null,"opening_hours":null,"capacity":null,"phone":null,"address":null,"osmType":"node","osmId":3648765071}},{"type":"Feature","geometry":{"type":"Point","coordinates":[1.5433,44.85169]},"properties":{"name":"Émergence de Meyraguet","country":"France","website":null,"opening_hours":null,"capacity":null,"phone":null,"address":null,"osmType":"node","osmId":3649148443}},{"type":"Feature","geometry":{"type":"Point","coordinates":[5.5329,43.21358]},"properties":{"name":"Émergence du Bestouan","country":"France","website":null,"opening_hours":null,"capacity":null,"phone":null,"address":null,"osmType":"node","osmId":3658660687}},{"type":"Feature","geometry":{"type":"Point","coordinates":[1.75422,44.45078]},"properties":{"name":"Trou Madame","country":"France","website":null,"opening_hours":null,"capacity":null,"phone":null,"address":null,"osmType":"node","osmId":3771900297}},{"type":"Feature","geometry":{"type":"Point","coordinates":[1.69435,44.57133]},"properties":{"name":"Centre de Plongée Souterraine","country":"France","website":"https://www.lotcavediving.eu/","opening_hours":null,"capacity":null,"phone":"+33 6 45 63 94 37","address":null,"osmType":"node","osmId":3842620651}},{"type":"Feature","geometry":{"type":"Point","coordinates":[5.87119,45.75865]},"properties":{"name":"Pierre à Bise","country":"France","website":null,"opening_hours":null,"capacity":null,"phone":null,"address":null,"osmType":"node","osmId":4075346913}},{"type":"Feature","geometry":{"type":"Point","coordinates":[1.79463,44.50957]},"properties":{"name":"Source du Tirondel","country":"France","website":null,"opening_hours":null,"capacity":null,"phone":null,"address":null,"osmType":"node","osmId":4146806933}},{"type":"Feature","geometry":{"type":"Point","coordinates":[3.92877,43.52747]},"properties":{"name":"Ecosystem Centre De Plongée","country":"France","website":null,"opening_hours":null,"capacity":null,"phone":null,"address":null,"osmType":"node","osmId":4262592490}},{"type":"Feature","geometry":{"type":"Point","coordinates":[1.55079,44.82502]},"properties":{"name":"Font del Truffe","country":"France","website":null,"opening_hours":null,"capacity":null,"phone":null,"address":null,"osmType":"node","osmId":4286676101}},{"type":"Feature","geometry":{"type":"Point","coordinates":[6.66644,43.23275]},"properties":{"name":"Sèche Salagru","country":"France","website":null,"opening_hours":null,"capacity":null,"phone":null,"address":null,"osmType":"node","osmId":4290467468}},{"type":"Feature","geometry":{"type":"Point","coordinates":[5.5963,43.16628]},"properties":{"name":"Calanque de Figuerolles","country":"France","website":null,"opening_hours":null,"capacity":null,"phone":null,"address":null,"osmType":"node","osmId":4356710559}},{"type":"Feature","geometry":{"type":"Point","coordinates":[6.1098,43.03991]},"properties":{"name":"Ulysse Plongée","country":"France","website":"https://www.ulysseplongee.fr/","opening_hours":"08:30-12:00,14:00-18:00","capacity":null,"phone":"+33 4 94 58 25 07","address":"1 Avenue René de Knyff, 83400 Hyères","osmType":"node","osmId":4479113847}},{"type":"Feature","geometry":{"type":"Point","coordinates":[5.76943,45.34959]},"properties":{"name":"Grotte de la Passerelle","country":"France","website":null,"opening_hours":null,"capacity":null,"phone":null,"address":null,"osmType":"node","osmId":4543550376}},{"type":"Feature","geometry":{"type":"Point","coordinates":[4.441,44.2521]},"properties":{"name":"Source de Marnade","country":"France","website":null,"opening_hours":null,"capacity":null,"phone":null,"address":null,"osmType":"node","osmId":4543573870}},{"type":"Feature","geometry":{"type":"Point","coordinates":[1.47372,43.61089]},"properties":{"name":"ASPTT Toulouse Plongée","country":"France","website":"http://www.asptt-plongee.fr/","opening_hours":null,"capacity":null,"phone":null,"address":"47 Rue de Soupetard, 31500 Toulouse","osmType":"node","osmId":4817971493}},{"type":"Feature","geometry":{"type":"Point","coordinates":[5.42671,43.20508]},"properties":{"name":"Les Capelans","country":"France","website":null,"opening_hours":null,"capacity":null,"phone":null,"address":null,"osmType":"node","osmId":4845978161}},{"type":"Feature","geometry":{"type":"Point","coordinates":[3.20953,44.12076]},"properties":{"name":"Source de l'Esperelle","country":"France","website":null,"opening_hours":null,"capacity":null,"phone":null,"address":null,"osmType":"node","osmId":4846565493}},{"type":"Feature","geometry":{"type":"Point","coordinates":[5.23963,43.33138]},"properties":{"name":"Baume Rousse","country":"France","website":null,"opening_hours":null,"capacity":null,"phone":null,"address":null,"osmType":"node","osmId":4870148960}},{"type":"Feature","geometry":{"type":"Point","coordinates":[5.21975,43.32811]},"properties":{"name":null,"country":"France","website":null,"opening_hours":null,"capacity":null,"phone":null,"address":null,"osmType":"node","osmId":4870148961}},{"type":"Feature","geometry":{"type":"Point","coordinates":[3.13316,42.48121]},"properties":{"name":"Club le Rederis","country":"France","website":null,"opening_hours":null,"capacity":null,"phone":null,"address":null,"osmType":"node","osmId":4973966062}},{"type":"Feature","geometry":{"type":"Point","coordinates":[3.45889,43.27407]},"properties":{"name":"Site de Plongée Le Sentier Sous Marin","country":"France","website":null,"opening_hours":null,"capacity":null,"phone":null,"address":null,"osmType":"node","osmId":5026935010}},{"type":"Feature","geometry":{"type":"Point","coordinates":[5.36672,43.24242]},"properties":{"name":"L'Enfant et la Mer","country":"France","website":"http://www.enfantmer.fr","opening_hours":null,"capacity":null,"phone":null,"address":null,"osmType":"node","osmId":5538749918}},{"type":"Feature","geometry":{"type":"Point","coordinates":[5.36688,43.24265]},"properties":{"name":"CMCAS Plongée","country":"France","website":"https://www.cmcasplongee.com/","opening_hours":null,"capacity":null,"phone":null,"address":null,"osmType":"node","osmId":5538749919}},{"type":"Feature","geometry":{"type":"Point","coordinates":[5.36709,43.24275]},"properties":{"name":"Dune","country":"France","website":null,"opening_hours":null,"capacity":null,"phone":null,"address":null,"osmType":"node","osmId":5538749920}},{"type":"Feature","geometry":{"type":"Point","coordinates":[5.87022,45.76151]},"properties":{"name":"Site de plongée de Challière","country":"France","website":null,"opening_hours":null,"capacity":null,"phone":null,"address":null,"osmType":"node","osmId":5647961621}},{"type":"Feature","geometry":{"type":"Point","coordinates":[5.60559,43.17103]},"properties":{"name":"Eden Dive","country":"France","website":null,"opening_hours":null,"capacity":null,"phone":null,"address":null,"osmType":"node","osmId":5697642882}},{"type":"Feature","geometry":{"type":"Point","coordinates":[5.61193,43.1795]},"properties":{"name":"Abyss Garden","country":"France","website":"https://www.abyss-garden.com/","opening_hours":null,"capacity":null,"phone":null,"address":null,"osmType":"node","osmId":5697651513}},{"type":"Feature","geometry":{"type":"Point","coordinates":[5.31667,43.23033]},"properties":{"name":"Ker-Bihan","country":"France","website":null,"opening_hours":null,"capacity":null,"phone":null,"address":null,"osmType":"node","osmId":5806730179}},{"type":"Feature","geometry":{"type":"Point","coordinates":[8.64639,42.40694]},"properties":{"name":"L'Incantu","country":"France","website":null,"opening_hours":null,"capacity":null,"phone":null,"address":null,"osmType":"node","osmId":5865392907}},{"type":"Feature","geometry":{"type":"Point","coordinates":[9.34573,41.63852]},"properties":{"name":"Subtortue","country":"France","website":"https://www.subtortue.net/","opening_hours":null,"capacity":null,"phone":null,"address":"20137","osmType":"node","osmId":5894687472}},{"type":"Feature","geometry":{"type":"Point","coordinates":[5.92115,43.08235]},"properties":{"name":"Saint-Mandrier Plongée","country":"France","website":"https://www.saint-mandrier-plongee.com/","opening_hours":"Mo-Su 08:00-19:00","capacity":null,"phone":"+33 4 94636607","address":null,"osmType":"node","osmId":6021803855}},{"type":"Feature","geometry":{"type":"Point","coordinates":[6.07864,43.03633]},"properties":{"name":"Mustang P51","country":"France","website":null,"opening_hours":null,"capacity":null,"phone":null,"address":null,"osmType":"node","osmId":6022696241}},{"type":"Feature","geometry":{"type":"Point","coordinates":[5.90555,43.06665]},"properties":{"name":"Le Tromblon","country":"France","website":null,"opening_hours":null,"capacity":null,"phone":null,"address":null,"osmType":"node","osmId":6022696242}},{"type":"Feature","geometry":{"type":"Point","coordinates":[5.86859,43.04801]},"properties":{"name":"Tombant des Deux Frères","country":"France","website":null,"opening_hours":null,"capacity":null,"phone":null,"address":null,"osmType":"node","osmId":6022696243}},{"type":"Feature","geometry":{"type":"Point","coordinates":[5.86192,45.69593]},"properties":{"name":"Tête de la vache","country":"France","website":null,"opening_hours":null,"capacity":null,"phone":null,"address":null,"osmType":"node","osmId":6263106016}},{"type":"Feature","geometry":{"type":"Point","coordinates":[3.85387,43.8767]},"properties":{"name":"Foux de Pompignan","country":"France","website":null,"opening_hours":null,"capacity":null,"phone":null,"address":null,"osmType":"node","osmId":6524269588}},{"type":"Feature","geometry":{"type":"Point","coordinates":[7.13822,43.54595]},"properties":{"name":null,"country":"France","website":null,"opening_hours":null,"capacity":null,"phone":null,"address":null,"osmType":"node","osmId":6685551848}},{"type":"Feature","geometry":{"type":"Point","coordinates":[6.68651,43.31478]},"properties":{"name":"Tombant des Sardinaux","country":"France","website":null,"opening_hours":null,"capacity":null,"phone":null,"address":null,"osmType":"node","osmId":6690818897}},{"type":"Feature","geometry":{"type":"Point","coordinates":[6.68531,43.31272]},"properties":{"name":"Rocher de la Garde (les Sardinaux)","country":"France","website":null,"opening_hours":null,"capacity":null,"phone":null,"address":null,"osmType":"node","osmId":6690818907}},{"type":"Feature","geometry":{"type":"Point","coordinates":[6.68509,43.31028]},"properties":{"name":"Sèche à l'Huile (les Sardinaux)","country":"France","website":null,"opening_hours":null,"capacity":null,"phone":null,"address":null,"osmType":"node","osmId":6690818908}},{"type":"Feature","geometry":{"type":"Point","coordinates":[6.6888,43.19977]},"properties":{"name":"Roche Fouras","country":"France","website":"https://www.observatoire-marin.com/","opening_hours":null,"capacity":null,"phone":null,"address":null,"osmType":"node","osmId":6690818912}},{"type":"Feature","geometry":{"type":"Point","coordinates":[6.68867,43.28113]},"properties":{"name":"Roche Michel","country":"France","website":"https://www.observatoire-marin.com/","opening_hours":null,"capacity":null,"phone":null,"address":null,"osmType":"node","osmId":6690818918}},{"type":"Feature","geometry":{"type":"Point","coordinates":[6.6813,43.2854]},"properties":{"name":"Rabiou, Arche","country":"France","website":"https://www.observatoire-marin.com/","opening_hours":null,"capacity":null,"phone":null,"address":null,"osmType":"node","osmId":6690818919}},{"type":"Feature","geometry":{"type":"Point","coordinates":[6.68337,43.28533]},"properties":{"name":"Rabiou, La Cathédrale","country":"France","website":"https://www.observatoire-marin.com/","opening_hours":null,"capacity":null,"phone":null,"address":null,"osmType":"node","osmId":6690818920}},{"type":"Feature","geometry":{"type":"Point","coordinates":[6.50835,43.15342]},"properties":{"name":"Dattier","country":"France","website":"https://www.observatoire-marin.com/","opening_hours":null,"capacity":null,"phone":null,"address":null,"osmType":"node","osmId":6690818933}},{"type":"Feature","geometry":{"type":"Point","coordinates":[6.62845,43.15766]},"properties":{"name":"Prophète","country":"France","website":null,"opening_hours":null,"capacity":null,"phone":null,"address":null,"osmType":"node","osmId":6691059535}},{"type":"Feature","geometry":{"type":"Point","coordinates":[6.65666,43.16815]},"properties":{"name":"Les Brisés","country":"France","website":null,"opening_hours":null,"capacity":null,"phone":null,"address":null,"osmType":"node","osmId":6691289299}},{"type":"Feature","geometry":{"type":"Point","coordinates":[6.65058,43.16933]},"properties":{"name":"L'Enfer de Taillat","country":"France","website":null,"opening_hours":null,"capacity":null,"phone":null,"address":null,"osmType":"node","osmId":6691289300}},{"type":"Feature","geometry":{"type":"Point","coordinates":[6.63322,43.1551]},"properties":{"name":"Les Quairolles","country":"France","website":null,"opening_hours":null,"capacity":null,"phone":null,"address":null,"osmType":"node","osmId":6691289301}},{"type":"Feature","geometry":{"type":"Point","coordinates":[6.62313,43.1577]},"properties":{"name":"Petit Sec","country":"France","website":null,"opening_hours":null,"capacity":null,"phone":null,"address":null,"osmType":"node","osmId":6691289323}},{"type":"Feature","geometry":{"type":"Point","coordinates":[6.6235,43.15985]},"properties":{"name":"La Dent de Requin","country":"France","website":null,"opening_hours":null,"capacity":null,"phone":null,"address":null,"osmType":"node","osmId":6694619323}},{"type":"Feature","geometry":{"type":"Point","coordinates":[6.54424,43.17381]},"properties":{"name":"Ramon Membru","country":"France","website":"http://greec.free.fr/diaporama/ramon%20membru/ramon%20membru.htm","opening_hours":null,"capacity":null,"phone":null,"address":null,"osmType":"node","osmId":6694619324}},{"type":"Feature","geometry":{"type":"Point","coordinates":[9.53973,42.33836]},"properties":{"name":"Costa Verde Loisirs","country":"France","website":null,"opening_hours":null,"capacity":null,"phone":null,"address":null,"osmType":"node","osmId":6723676879}},{"type":"Feature","geometry":{"type":"Point","coordinates":[5.61143,43.17886]},"properties":{"name":"G.P.E.S.","country":"France","website":"https://www.gpes.fr/","opening_hours":null,"capacity":null,"phone":"+33 6 52 65 84 67","address":null,"osmType":"node","osmId":6764191566}},{"type":"Feature","geometry":{"type":"Point","coordinates":[2.77466,44.19722]},"properties":{"name":"Pongée Nature","country":"France","website":"http://ok-plongee-nature.fr/","opening_hours":null,"capacity":null,"phone":"+33 7 81 18 33 05","address":null,"osmType":"node","osmId":6855701683}},{"type":"Feature","geometry":{"type":"Point","coordinates":[2.28658,48.7438]},"properties":{"name":"Espace plongée du centre aquatique Pajeaud","country":"France","website":"https://www.ville-antony.fr/espace-plongee","opening_hours":"Mo-Fr 10:00-23:00; Sa,Su 10:00-19:00","capacity":null,"phone":"+33 1 40 96 64 55","address":"104 Rue Adolphe Pajeaud, Antony","osmType":"node","osmId":7062879959}},{"type":"Feature","geometry":{"type":"Point","coordinates":[6.37376,43.13621]},"properties":{"name":"Kenavo","country":"France","website":null,"opening_hours":null,"capacity":null,"phone":null,"address":null,"osmType":"node","osmId":7781054632}},{"type":"Feature","geometry":{"type":"Point","coordinates":[6.15737,43.0281]},"properties":{"name":"Sentier sous-marin","country":"France","website":"https://destination.portcros-parcnational.fr/outdoor-site/12-Sentier-sous-marin-de-la-pointe-du-Bouvet-(Tour-Fondue)","opening_hours":null,"capacity":null,"phone":null,"address":null,"osmType":"node","osmId":7859233612}},{"type":"Feature","geometry":{"type":"Point","coordinates":[5.75861,43.0772]},"properties":{"name":null,"country":"France","website":null,"opening_hours":null,"capacity":null,"phone":null,"address":null,"osmType":"node","osmId":8306632419}},{"type":"Feature","geometry":{"type":"Point","coordinates":[5.68089,46.18199]},"properties":{"name":"Essential Diving","country":"France","website":"https://essentialdiving.fr/","opening_hours":"Mo-Sa 10:00-19:00","capacity":null,"phone":"+33 7 60 50 08 73","address":"1bis Rue des Combes, 01130 Charix","osmType":"node","osmId":9240549010}},{"type":"Feature","geometry":{"type":"Point","coordinates":[2.89844,42.66984]},"properties":{"name":"Odyssub","country":"France","website":null,"opening_hours":"Tu-Sa 09:30-12:00,14:30-19:00","capacity":null,"phone":null,"address":null,"osmType":"node","osmId":9551489746}},{"type":"Feature","geometry":{"type":"Point","coordinates":[5.29735,43.28233]},"properties":{"name":null,"country":"France","website":null,"opening_hours":null,"capacity":null,"phone":null,"address":null,"osmType":"node","osmId":9632268583}},{"type":"Feature","geometry":{"type":"Point","coordinates":[5.29278,43.28211]},"properties":{"name":null,"country":"France","website":null,"opening_hours":null,"capacity":null,"phone":null,"address":null,"osmType":"node","osmId":9632268584}},{"type":"Feature","geometry":{"type":"Point","coordinates":[5.29907,43.27622]},"properties":{"name":null,"country":"France","website":null,"opening_hours":null,"capacity":null,"phone":null,"address":null,"osmType":"node","osmId":9632268585}},{"type":"Feature","geometry":{"type":"Point","coordinates":[5.32801,43.27054]},"properties":{"name":null,"country":"France","website":null,"opening_hours":null,"capacity":null,"phone":null,"address":null,"osmType":"node","osmId":9632268591}},{"type":"Feature","geometry":{"type":"Point","coordinates":[5.32952,43.2127]},"properties":{"name":null,"country":"France","website":null,"opening_hours":null,"capacity":null,"phone":null,"address":null,"osmType":"node","osmId":9633350258}},{"type":"Feature","geometry":{"type":"Point","coordinates":[6.10411,43.02991]},"properties":{"name":null,"country":"France","website":null,"opening_hours":null,"capacity":null,"phone":null,"address":null,"osmType":"node","osmId":9844998069}},{"type":"Feature","geometry":{"type":"Point","coordinates":[2.27982,49.13597]},"properties":{"name":null,"country":"France","website":null,"opening_hours":null,"capacity":null,"phone":null,"address":null,"osmType":"node","osmId":9915825142}},{"type":"Feature","geometry":{"type":"Point","coordinates":[2.27873,49.13673]},"properties":{"name":null,"country":"France","website":null,"opening_hours":null,"capacity":null,"phone":null,"address":null,"osmType":"node","osmId":9915825143}},{"type":"Feature","geometry":{"type":"Point","coordinates":[2.27876,49.13717]},"properties":{"name":null,"country":"France","website":null,"opening_hours":null,"capacity":null,"phone":null,"address":null,"osmType":"node","osmId":9915825144}},{"type":"Feature","geometry":{"type":"Point","coordinates":[2.27822,49.13769]},"properties":{"name":null,"country":"France","website":null,"opening_hours":null,"capacity":null,"phone":null,"address":null,"osmType":"node","osmId":9915825145}},{"type":"Feature","geometry":{"type":"Point","coordinates":[7.41748,43.73017]},"properties":{"name":"CESMM","country":"France","website":"https://cesmm.com/","opening_hours":null,"capacity":null,"phone":"+37799903883","address":"MC","osmType":"node","osmId":9919108671}},{"type":"Feature","geometry":{"type":"Point","coordinates":[3.70018,43.42463]},"properties":{"name":"Le ponton de la bordelaise","country":"France","website":null,"opening_hours":null,"capacity":null,"phone":null,"address":null,"osmType":"node","osmId":9948901369}},{"type":"Feature","geometry":{"type":"Point","coordinates":[3.7108,48.55668]},"properties":{"name":"Blue Luve","country":"France","website":null,"opening_hours":null,"capacity":null,"phone":null,"address":null,"osmType":"node","osmId":10079820717}},{"type":"Feature","geometry":{"type":"Point","coordinates":[6.15444,43.00134]},"properties":{"name":"Le Sec Aux Murennes","country":"France","website":null,"opening_hours":null,"capacity":null,"phone":null,"address":null,"osmType":"node","osmId":11026523224}},{"type":"Feature","geometry":{"type":"Point","coordinates":[1.6536,44.49389]},"properties":{"name":"Goule de Marcenac","country":"France","website":null,"opening_hours":null,"capacity":null,"phone":null,"address":null,"osmType":"node","osmId":11138359901}},{"type":"Feature","geometry":{"type":"Point","coordinates":[3.12297,42.52163]},"properties":{"name":"Pythéas","country":"France","website":null,"opening_hours":null,"capacity":null,"phone":null,"address":null,"osmType":"node","osmId":11736882875}},{"type":"Feature","geometry":{"type":"Point","coordinates":[3.13927,42.4812]},"properties":{"name":"Pelleteuse","country":"France","website":null,"opening_hours":null,"capacity":null,"phone":null,"address":null,"osmType":"node","osmId":11736993514}},{"type":"Feature","geometry":{"type":"Point","coordinates":[3.13453,42.48002]},"properties":{"name":"Aquablue","country":"France","website":null,"opening_hours":null,"capacity":null,"phone":null,"address":null,"osmType":"node","osmId":11837415061}},{"type":"Feature","geometry":{"type":"Point","coordinates":[3.97501,43.54327]},"properties":{"name":"Andromède","country":"France","website":"https://andromedeplongeebio.com/","opening_hours":null,"capacity":null,"phone":null,"address":null,"osmType":"node","osmId":11987051367}},{"type":"Feature","geometry":{"type":"Point","coordinates":[3.70442,43.40865]},"properties":{"name":"Pesca Sète","country":"France","website":null,"opening_hours":null,"capacity":null,"phone":"+33 4 99 02 88 89","address":null,"osmType":"node","osmId":12356157969}},{"type":"Feature","geometry":{"type":"Point","coordinates":[4.83003,45.7327]},"properties":{"name":"Plongée - Lyon Sport Métropole","country":"France","website":"https://plongee.lyonsportmetropole.org/","opening_hours":null,"capacity":null,"phone":null,"address":"207 Rue Marcel Mérieux","osmType":"node","osmId":12862472160}},{"type":"Feature","geometry":{"type":"Point","coordinates":[6.39576,42.98926]},"properties":{"name":"Gabiniėre Est","country":"France","website":null,"opening_hours":null,"capacity":null,"phone":null,"address":null,"osmType":"node","osmId":12988211769}},{"type":"Feature","geometry":{"type":"Point","coordinates":[8.7277,42.58195]},"properties":{"name":null,"country":"France","website":null,"opening_hours":null,"capacity":null,"phone":null,"address":null,"osmType":"node","osmId":13149122311}},{"type":"Feature","geometry":{"type":"Point","coordinates":[8.79879,42.60152]},"properties":{"name":null,"country":"France","website":null,"opening_hours":null,"capacity":null,"phone":null,"address":null,"osmType":"node","osmId":13149126807}},{"type":"Feature","geometry":{"type":"Point","coordinates":[8.84009,42.6227]},"properties":{"name":null,"country":"France","website":null,"opening_hours":null,"capacity":null,"phone":null,"address":null,"osmType":"node","osmId":13149129876}},{"type":"Feature","geometry":{"type":"Point","coordinates":[4.80388,45.775]},"properties":{"name":"Thalassa Lyon Plongée","country":"France","website":"thalassalyonplongee.fr","opening_hours":null,"capacity":null,"phone":"+33 7 69 29 90 64","address":null,"osmType":"node","osmId":13162128720}},{"type":"Feature","geometry":{"type":"Point","coordinates":[2.10902,51.00359]},"properties":{"name":"Club des Smogglers","country":"France","website":null,"opening_hours":null,"capacity":null,"phone":null,"address":null,"osmType":"node","osmId":13300211219}},{"type":"Feature","geometry":{"type":"Point","coordinates":[9.4944,42.59923]},"properties":{"name":"Sport di mare","country":"France","website":null,"opening_hours":null,"capacity":null,"phone":"+33495471077","address":null,"osmType":"node","osmId":13367816720}},{"type":"Feature","geometry":{"type":"Point","coordinates":[5.75212,43.12745]},"properties":{"name":null,"country":"France","website":null,"opening_hours":null,"capacity":null,"phone":null,"address":null,"osmType":"node","osmId":13437161463}},{"type":"Feature","geometry":{"type":"Point","coordinates":[2.21127,47.13009]},"properties":{"name":"L'Yèvre De Mer Plongée","country":"France","website":"https://lyevredemerplongee.vpdive.com/","opening_hours":"Fr 20:00-22:00","capacity":null,"phone":"+33 6 75 02 75 96","address":"187 Rue André Brému, 18500 Mehun-sur-Yèvre","osmType":"node","osmId":13718208977}},{"type":"Feature","geometry":{"type":"Point","coordinates":[0.57636,49.48665]},"properties":{"name":null,"country":"France","website":null,"opening_hours":null,"capacity":null,"phone":null,"address":null,"osmType":"way","osmId":63708534}},{"type":"Feature","geometry":{"type":"Point","coordinates":[9.36365,41.59139]},"properties":{"name":null,"country":"France","website":null,"opening_hours":null,"capacity":null,"phone":null,"address":null,"osmType":"way","osmId":66455939}},{"type":"Feature","geometry":{"type":"Point","coordinates":[9.16341,41.39829]},"properties":{"name":"Barakouda Diving Centre","country":"France","website":null,"opening_hours":null,"capacity":null,"phone":null,"address":null,"osmType":"way","osmId":66657765}},{"type":"Feature","geometry":{"type":"Point","coordinates":[6.81144,44.61688]},"properties":{"name":"Lac Sainte-Anne","country":"France","website":null,"opening_hours":null,"capacity":null,"phone":null,"address":null,"osmType":"way","osmId":70386352}},{"type":"Feature","geometry":{"type":"Point","coordinates":[6.87021,47.81712]},"properties":{"name":"Lac d'Alfeld","country":"France","website":null,"opening_hours":null,"capacity":null,"phone":null,"address":null,"osmType":"way","osmId":72368862}},{"type":"Feature","geometry":{"type":"Point","coordinates":[2.9585,42.85918]},"properties":{"name":"Font Estramar","country":"France","website":null,"opening_hours":null,"capacity":null,"phone":null,"address":null,"osmType":"way","osmId":84954571}},{"type":"Feature","geometry":{"type":"Point","coordinates":[4.29187,46.64147]},"properties":{"name":"Plan d'eau des Fouthiaux","country":"France","website":null,"opening_hours":null,"capacity":null,"phone":null,"address":null,"osmType":"way","osmId":129357363}},{"type":"Feature","geometry":{"type":"Point","coordinates":[5.17697,45.68372]},"properties":{"name":"Plan d'eau de Chamagnieu","country":"France","website":null,"opening_hours":null,"capacity":null,"phone":null,"address":null,"osmType":"way","osmId":142921432}},{"type":"Feature","geometry":{"type":"Point","coordinates":[5.42854,43.23754]},"properties":{"name":null,"country":"France","website":null,"opening_hours":null,"capacity":null,"phone":null,"address":null,"osmType":"way","osmId":153575132}},{"type":"Feature","geometry":{"type":"Point","coordinates":[1.93498,47.83464]},"properties":{"name":null,"country":"France","website":null,"opening_hours":null,"capacity":null,"phone":null,"address":null,"osmType":"way","osmId":153705215}},{"type":"Feature","geometry":{"type":"Point","coordinates":[5.34591,43.21767]},"properties":{"name":"Centre de Loisirs des Goudes","country":"France","website":"https://www.goudes-plongee.com/","opening_hours":null,"capacity":null,"phone":null,"address":null,"osmType":"way","osmId":154225750}},{"type":"Feature","geometry":{"type":"Point","coordinates":[4.84046,46.3176]},"properties":{"name":"Fosse à plongeon","country":"France","website":null,"opening_hours":null,"capacity":null,"phone":null,"address":null,"osmType":"way","osmId":160989684}},{"type":"Feature","geometry":{"type":"Point","coordinates":[2.56154,45.01489]},"properties":{"name":"Lac des Graves","country":"France","website":null,"opening_hours":null,"capacity":null,"phone":null,"address":null,"osmType":"way","osmId":168080099}},{"type":"Feature","geometry":{"type":"Point","coordinates":[5.35571,43.29502]},"properties":{"name":"GRASM - CEFERAS Centre de plongée","country":"France","website":"https://www.grasm-plongee.com/","opening_hours":null,"capacity":null,"phone":null,"address":null,"osmType":"way","osmId":179138978}},{"type":"Feature","geometry":{"type":"Point","coordinates":[5.21765,46.62347]},"properties":{"name":"Fosse à Plonger","country":"France","website":null,"opening_hours":null,"capacity":null,"phone":null,"address":null,"osmType":"way","osmId":190284057}},{"type":"Feature","geometry":{"type":"Point","coordinates":[4.42532,46.80039]},"properties":{"name":"Bassin Plongeoir","country":"France","website":null,"opening_hours":null,"capacity":null,"phone":null,"address":null,"osmType":"way","osmId":191286246}},{"type":"Feature","geometry":{"type":"Point","coordinates":[6.37136,43.13709]},"properties":{"name":"CIP Le Lavandou","country":"France","website":"https://www.ciplavandou.com","opening_hours":"8:00-12:00; 14:00-19:00","capacity":null,"phone":"+33 4 94 71 54 57","address":null,"osmType":"way","osmId":204918398}},{"type":"Feature","geometry":{"type":"Point","coordinates":[6.19855,43.11525]},"properties":{"name":"Immersion Plongée","country":"France","website":"http://www.immersion-plongee.com","opening_hours":null,"capacity":null,"phone":null,"address":"13 Avenue des Chalutiers, 83400","osmType":"way","osmId":221883665}},{"type":"Feature","geometry":{"type":"Point","coordinates":[5.25786,43.33843]},"properties":{"name":"Centre UCPA - Niolon","country":"France","website":"https://ucpa.asso.fr","opening_hours":null,"capacity":null,"phone":"+33 4 91469016","address":"13740 Le Rove","osmType":"way","osmId":232529290}},{"type":"Feature","geometry":{"type":"Point","coordinates":[1.36687,44.01329]},"properties":{"name":"Fosse de Plongée","country":"France","website":null,"opening_hours":null,"capacity":null,"phone":null,"address":null,"osmType":"way","osmId":250623087}},{"type":"Feature","geometry":{"type":"Point","coordinates":[5.64126,46.25393]},"properties":{"name":null,"country":"France","website":null,"opening_hours":null,"capacity":null,"phone":null,"address":null,"osmType":"way","osmId":301168030}},{"type":"Feature","geometry":{"type":"Point","coordinates":[1.79064,44.79098]},"properties":{"name":"Le Pech de Vigne","country":"France","website":"https://lepechdevigne.fr","opening_hours":null,"capacity":null,"phone":null,"address":"530 Route du Mas Del Pech, 46500 Bio","osmType":"way","osmId":302556808}},{"type":"Feature","geometry":{"type":"Point","coordinates":[4.15643,47.38377]},"properties":{"name":null,"country":"France","website":null,"opening_hours":null,"capacity":null,"phone":null,"address":null,"osmType":"way","osmId":325944112}},{"type":"Feature","geometry":{"type":"Point","coordinates":[8.81596,41.62931]},"properties":{"name":"Torra Plongée","country":"France","website":"https://torra-plongee.com/","opening_hours":null,"capacity":null,"phone":null,"address":null,"osmType":"way","osmId":361102005}},{"type":"Feature","geometry":{"type":"Point","coordinates":[4.64102,44.37038]},"properties":{"name":"Goul du Pont","country":"France","website":null,"opening_hours":null,"capacity":null,"phone":null,"address":null,"osmType":"way","osmId":541919611}},{"type":"Feature","geometry":{"type":"Point","coordinates":[4.64131,44.36967]},"properties":{"name":"Goul de la Tannerie","country":"France","website":null,"opening_hours":null,"capacity":null,"phone":null,"address":null,"osmType":"way","osmId":541919613}},{"type":"Feature","geometry":{"type":"Point","coordinates":[6.50394,46.39896]},"properties":{"name":"Aquaventure","country":"France","website":"https://leman-explorer.com/","opening_hours":null,"capacity":null,"phone":"+33 4 50 71 48 47","address":"117 Avenue de Saint-Disdille, 74200 Thonon-les-Bains","osmType":"way","osmId":815748051}},{"type":"Feature","geometry":{"type":"Point","coordinates":[6.12287,43.07941]},"properties":{"name":"Sentier marin archéologique d'Olbia","country":"France","website":"https://www.hyeres-tourisme.com/sentier-marin-dolbia/","opening_hours":null,"capacity":null,"phone":null,"address":null,"osmType":"way","osmId":961147609}},{"type":"Feature","geometry":{"type":"Point","coordinates":[6.39127,43.0133]},"properties":{"name":"Sentier sous-marin de la Palud","country":"France","website":null,"opening_hours":null,"capacity":null,"phone":null,"address":null,"osmType":"way","osmId":1025883168}},{"type":"Feature","geometry":{"type":"Point","coordinates":[5.37145,43.24177]},"properties":{"name":"Atoll Plongée","country":"France","website":"www.atollplongee.com","opening_hours":"Mo-Su 08:00-20:00","capacity":null,"phone":"+33 4 91 72 18 14","address":"31 Traverse Prat, 13008 Marseille","osmType":"way","osmId":1041071132}}]}