{"type":"FeatureCollection","features":[{"type":"Feature","geometry":{"type":"Point","coordinates":[139.90301,35.7849]},"properties":{"name":"フィズ","country":"Japan","website":null,"opening_hours":null,"capacity":null,"phone":null,"address":null,"osmType":"node","osmId":821386696}},{"type":"Feature","geometry":{"type":"Point","coordinates":[138.74349,34.79415]},"properties":{"name":null,"country":"Japan","website":null,"opening_hours":null,"capacity":null,"phone":null,"address":null,"osmType":"node","osmId":1761798112}},{"type":"Feature","geometry":{"type":"Point","coordinates":[138.74599,34.81163]},"properties":{"name":null,"country":"Japan","website":null,"opening_hours":null,"capacity":null,"phone":null,"address":null,"osmType":"node","osmId":1761798119}},{"type":"Feature","geometry":{"type":"Point","coordinates":[137.70167,34.69917]},"properties":{"name":"be dive","country":"Japan","website":"https://be-dive.com/","opening_hours":null,"capacity":null,"phone":null,"address":null,"osmType":"node","osmId":3601990405}},{"type":"Feature","geometry":{"type":"Point","coordinates":[139.61222,35.13632]},"properties":{"name":"城ヶ島 Diving Center","country":"Japan","website":null,"opening_hours":null,"capacity":null,"phone":null,"address":null,"osmType":"node","osmId":3988006026}},{"type":"Feature","geometry":{"type":"Point","coordinates":[140.02964,35.77123]},"properties":{"name":"ハスチョルダイビング","country":"Japan","website":null,"opening_hours":null,"capacity":null,"phone":null,"address":null,"osmType":"node","osmId":6047540615}},{"type":"Feature","geometry":{"type":"Point","coordinates":[140.00299,35.779]},"properties":{"name":"ティモンオーシャンファンタジー","country":"Japan","website":null,"opening_hours":null,"capacity":null,"phone":null,"address":null,"osmType":"node","osmId":6047540616}},{"type":"Feature","geometry":{"type":"Point","coordinates":[139.91416,35.82677]},"properties":{"name":"Colors Diving Pro Shop","country":"Japan","website":null,"opening_hours":null,"capacity":null,"phone":null,"address":null,"osmType":"node","osmId":9965224412}},{"type":"Feature","geometry":{"type":"Point","coordinates":[137.15602,34.92933]},"properties":{"name":"わっしょいダイバーズ","country":"Japan","website":null,"opening_hours":null,"capacity":null,"phone":null,"address":null,"osmType":"node","osmId":10556739195}},{"type":"Feature","geometry":{"type":"Point","coordinates":[138.22748,36.64795]},"properties":{"name":"Dolphin's Dream","country":"Japan","website":null,"opening_hours":null,"capacity":null,"phone":null,"address":null,"osmType":"node","osmId":10960704690}},{"type":"Feature","geometry":{"type":"Point","coordinates":[138.78931,35.02896]},"properties":{"name":"Sentan","country":"Japan","website":null,"opening_hours":null,"capacity":null,"phone":null,"address":null,"osmType":"node","osmId":13380725515}},{"type":"Feature","geometry":{"type":"Point","coordinates":[138.78549,35.0285]},"properties":{"name":"Outer bay","country":"Japan","website":null,"opening_hours":null,"capacity":null,"phone":null,"address":null,"osmType":"node","osmId":13380725516}},{"type":"Feature","geometry":{"type":"Point","coordinates":[138.78697,35.02584]},"properties":{"name":"Wannai","country":"Japan","website":null,"opening_hours":null,"capacity":null,"phone":null,"address":null,"osmType":"node","osmId":13380737749}},{"type":"Feature","geometry":{"type":"Point","coordinates":[138.23573,37.01633]},"properties":{"name":null,"country":"Japan","website":null,"opening_hours":null,"capacity":null,"phone":null,"address":null,"osmType":"way","osmId":351038311}},{"type":"Feature","geometry":{"type":"Point","coordinates":[140.09261,35.7026]},"properties":{"name":"サマータイム","country":"Japan","website":null,"opening_hours":null,"capacity":null,"phone":null,"address":null,"osmType":"way","osmId":426781489}},{"type":"Feature","geometry":{"type":"Point","coordinates":[132.69756,32.92182]},"properties":{"name":"沖の島 ダイビング黒潮","country":"Japan","website":null,"opening_hours":null,"capacity":null,"phone":null,"address":null,"osmType":"way","osmId":554587857}},{"type":"Feature","geometry":{"type":"Point","coordinates":[133.88299,34.56589]},"properties":{"name":"DIVERS OKAYAMA","country":"Japan","website":"http://d-okayama.com/","opening_hours":null,"capacity":null,"phone":"+81 86 296 3291","address":"岡山県岡山市南区藤田227-23","osmType":"way","osmId":640219494}}]}