{"type":"FeatureCollection","features":[{"type":"Feature","geometry":{"type":"Point","coordinates":[119.96952,12.0176]},"properties":{"name":"Taiei Maru","country":"Philippines","website":null,"opening_hours":null,"capacity":null,"phone":null,"address":null,"osmType":"node","osmId":663871190}},{"type":"Feature","geometry":{"type":"Point","coordinates":[119.97353,11.9871]},"properties":{"name":"Akitsushima","country":"Philippines","website":null,"opening_hours":null,"capacity":null,"phone":null,"address":null,"osmType":"node","osmId":663871197}},{"type":"Feature","geometry":{"type":"Point","coordinates":[119.81988,12.15497]},"properties":{"name":"Nanshin Maru wreck (Black island beach)","country":"Philippines","website":"http://www.dive-links.com/tauchplatz.php?id=1279","opening_hours":null,"capacity":null,"phone":null,"address":null,"osmType":"node","osmId":663871203}},{"type":"Feature","geometry":{"type":"Point","coordinates":[119.82544,12.14954]},"properties":{"name":"Nashin","country":"Philippines","website":null,"opening_hours":null,"capacity":null,"phone":null,"address":null,"osmType":"node","osmId":5527196821}},{"type":"Feature","geometry":{"type":"Point","coordinates":[119.3047,11.14141]},"properties":{"name":"Biet Point","country":"Philippines","website":null,"opening_hours":null,"capacity":null,"phone":null,"address":null,"osmType":"node","osmId":9865420678}},{"type":"Feature","geometry":{"type":"Point","coordinates":[119.27923,11.15368]},"properties":{"name":"Cave","country":"Philippines","website":null,"opening_hours":null,"capacity":null,"phone":null,"address":null,"osmType":"node","osmId":9865472184}},{"type":"Feature","geometry":{"type":"Point","coordinates":[119.28062,11.13564]},"properties":{"name":"Banayan Point","country":"Philippines","website":null,"opening_hours":null,"capacity":null,"phone":null,"address":null,"osmType":"node","osmId":9865490958}},{"type":"Feature","geometry":{"type":"Point","coordinates":[119.27816,11.14399]},"properties":{"name":"Bikanayos Rock","country":"Philippines","website":null,"opening_hours":null,"capacity":null,"phone":null,"address":null,"osmType":"node","osmId":9865495623}},{"type":"Feature","geometry":{"type":"Point","coordinates":[119.30612,11.14127]},"properties":{"name":"Biet Point","country":"Philippines","website":null,"opening_hours":null,"capacity":null,"phone":null,"address":null,"osmType":"way","osmId":236001016}},{"type":"Feature","geometry":{"type":"Point","coordinates":[119.27916,11.13582]},"properties":{"name":"Banayan Point","country":"Philippines","website":null,"opening_hours":null,"capacity":null,"phone":null,"address":null,"osmType":"way","osmId":236058151}},{"type":"Feature","geometry":{"type":"Point","coordinates":[119.27671,11.14431]},"properties":{"name":"Bikanayos Rock","country":"Philippines","website":null,"opening_hours":null,"capacity":null,"phone":null,"address":null,"osmType":"way","osmId":236058152}},{"type":"Feature","geometry":{"type":"Point","coordinates":[119.27791,11.15389]},"properties":{"name":"Cave","country":"Philippines","website":null,"opening_hours":null,"capacity":null,"phone":null,"address":null,"osmType":"way","osmId":236058154}},{"type":"Feature","geometry":{"type":"Point","coordinates":[119.33117,11.11094]},"properties":{"name":null,"country":"Philippines","website":null,"opening_hours":null,"capacity":null,"phone":null,"address":null,"osmType":"way","osmId":236058169}},{"type":"Feature","geometry":{"type":"Point","coordinates":[119.1646,10.44313]},"properties":{"name":"Twin Reef","country":"Philippines","website":null,"opening_hours":null,"capacity":null,"phone":null,"address":null,"osmType":"way","osmId":1354585119}},{"type":"Feature","geometry":{"type":"Point","coordinates":[119.16125,10.45428]},"properties":{"name":"Fantastic Reef","country":"Philippines","website":null,"opening_hours":null,"capacity":null,"phone":null,"address":null,"osmType":"way","osmId":1354585330}},{"type":"Feature","geometry":{"type":"Point","coordinates":[124.63636,9.21919]},"properties":{"name":null,"country":"Philippines","website":null,"opening_hours":null,"capacity":null,"phone":null,"address":null,"osmType":"node","osmId":393731608}},{"type":"Feature","geometry":{"type":"Point","coordinates":[123.72248,9.59237]},"properties":{"name":"Doljo Point","country":"Philippines","website":"http://www.dive-links.com/tauchplatz.php?id=2047","opening_hours":null,"capacity":null,"phone":null,"address":null,"osmType":"node","osmId":663871182}},{"type":"Feature","geometry":{"type":"Point","coordinates":[123.68101,9.51804]},"properties":{"name":"Fish Sanctuary","country":"Philippines","website":"http://www.dive-links.com/tauchplatz.php?id=2044","opening_hours":null,"capacity":null,"phone":null,"address":null,"osmType":"node","osmId":663871183}},{"type":"Feature","geometry":{"type":"Point","coordinates":[123.68893,9.51483]},"properties":{"name":"Black Forest","country":"Philippines","website":"http://www.dive-links.com/tauchplatz.php?id=2043","opening_hours":null,"capacity":null,"phone":null,"address":null,"osmType":"node","osmId":663871185}},{"type":"Feature","geometry":{"type":"Point","coordinates":[123.7691,9.8926]},"properties":{"name":"Fallen Tree","country":"Philippines","website":"http://www.dive-links.com/tauchplatz.php?id=2046","opening_hours":null,"capacity":null,"phone":null,"address":null,"osmType":"node","osmId":663871186}},{"type":"Feature","geometry":{"type":"Point","coordinates":[123.76073,9.89115]},"properties":{"name":"Lighthouse West","country":"Philippines","website":"http://www.dive-links.com/tauchplatz.php?id=2045","opening_hours":null,"capacity":null,"phone":null,"address":null,"osmType":"node","osmId":663871187}},{"type":"Feature","geometry":{"type":"Point","coordinates":[123.7081,12.61102]},"properties":{"name":"Manta Bowl","country":"Philippines","website":"http://www.dive-links.com/tauchplatz.php?id=1542","opening_hours":null,"capacity":null,"phone":null,"address":null,"osmType":"node","osmId":663871188}},{"type":"Feature","geometry":{"type":"Point","coordinates":[120.07955,11.9742]},"properties":{"name":"Teru Kaze","country":"Philippines","website":"http://www.dive-links.com/tauchplatz.php?id=1270","opening_hours":null,"capacity":null,"phone":null,"address":null,"osmType":"node","osmId":663871191}},{"type":"Feature","geometry":{"type":"Point","coordinates":[120.03977,11.97997]},"properties":{"name":"Kogyo","country":"Philippines","website":"http://www.dive-links.com/tauchplatz.php?id=1269","opening_hours":null,"capacity":null,"phone":null,"address":null,"osmType":"node","osmId":663871192}},{"type":"Feature","geometry":{"type":"Point","coordinates":[120.06123,11.97116]},"properties":{"name":"Olympia","country":"Philippines","website":"http://www.dive-links.com/tauchplatz.php?id=1268;http://www.dive-links.com/tauchplatz.php?id=1273","opening_hours":null,"capacity":null,"phone":null,"address":null,"osmType":"node","osmId":663871194}},{"type":"Feature","geometry":{"type":"Point","coordinates":[120.04015,11.96783]},"properties":{"name":"Irako","country":"Philippines","website":null,"opening_hours":null,"capacity":null,"phone":null,"address":null,"osmType":"node","osmId":663871195}},{"type":"Feature","geometry":{"type":"Point","coordinates":[120.02422,11.97092]},"properties":{"name":"Lusong gunboat","country":"Philippines","website":"http://www.dive-links.com/tauchplatz.php?id=1275","opening_hours":null,"capacity":null,"phone":null,"address":null,"osmType":"node","osmId":663871201}},{"type":"Feature","geometry":{"type":"Point","coordinates":[120.15415,12.1635]},"properties":{"name":"Kyokuzan Maru","country":"Philippines","website":"http://www.dive-links.com/tauchplatz.php?id=1280","opening_hours":null,"capacity":null,"phone":null,"address":null,"osmType":"node","osmId":663871202}},{"type":"Feature","geometry":{"type":"Point","coordinates":[123.68267,9.51322]},"properties":{"name":null,"country":"Philippines","website":null,"opening_hours":null,"capacity":null,"phone":null,"address":null,"osmType":"node","osmId":767583510}},{"type":"Feature","geometry":{"type":"Point","coordinates":[125.67764,6.96063]},"properties":{"name":"Angel's Cove","country":"Philippines","website":null,"opening_hours":null,"capacity":null,"phone":null,"address":null,"osmType":"node","osmId":1235385234}},{"type":"Feature","geometry":{"type":"Point","coordinates":[120.91435,13.79479]},"properties":{"name":"Dive Site","country":"Philippines","website":null,"opening_hours":null,"capacity":null,"phone":null,"address":null,"osmType":"node","osmId":1271232216}},{"type":"Feature","geometry":{"type":"Point","coordinates":[120.89738,13.81588]},"properties":{"name":"Dive Site","country":"Philippines","website":null,"opening_hours":null,"capacity":null,"phone":null,"address":null,"osmType":"node","osmId":1271232724}},{"type":"Feature","geometry":{"type":"Point","coordinates":[120.90871,13.8303]},"properties":{"name":"Rockport Dive Site","country":"Philippines","website":null,"opening_hours":null,"capacity":null,"phone":null,"address":null,"osmType":"node","osmId":1271234012}},{"type":"Feature","geometry":{"type":"Point","coordinates":[125.68185,6.91828]},"properties":{"name":"Coral Gardens","country":"Philippines","website":null,"opening_hours":null,"capacity":null,"phone":null,"address":null,"osmType":"node","osmId":1897541326}},{"type":"Feature","geometry":{"type":"Point","coordinates":[125.78796,7.15838]},"properties":{"name":"Pinnacle Point","country":"Philippines","website":null,"opening_hours":null,"capacity":null,"phone":null,"address":null,"osmType":"node","osmId":1897546682}},{"type":"Feature","geometry":{"type":"Point","coordinates":[123.41315,10.42549]},"properties":{"name":null,"country":"Philippines","website":null,"opening_hours":null,"capacity":null,"phone":null,"address":null,"osmType":"node","osmId":1947054184}},{"type":"Feature","geometry":{"type":"Point","coordinates":[123.26724,9.07964]},"properties":{"name":"Baluarte","country":"Philippines","website":null,"opening_hours":null,"capacity":null,"phone":null,"address":null,"osmType":"node","osmId":2158775966}},{"type":"Feature","geometry":{"type":"Point","coordinates":[123.26709,9.07732]},"properties":{"name":"Chapel","country":"Philippines","website":null,"opening_hours":null,"capacity":null,"phone":null,"address":null,"osmType":"node","osmId":2158775967}},{"type":"Feature","geometry":{"type":"Point","coordinates":[123.26982,9.08516]},"properties":{"name":"Coconut Point","country":"Philippines","website":null,"opening_hours":null,"capacity":null,"phone":null,"address":null,"osmType":"node","osmId":2158775968}},{"type":"Feature","geometry":{"type":"Point","coordinates":[123.27445,9.08112]},"properties":{"name":"Cogon","country":"Philippines","website":null,"opening_hours":null,"capacity":null,"phone":null,"address":null,"osmType":"node","osmId":2158775969}},{"type":"Feature","geometry":{"type":"Point","coordinates":[123.27407,9.07615]},"properties":{"name":"Kan Uran","country":"Philippines","website":null,"opening_hours":null,"capacity":null,"phone":null,"address":null,"osmType":"node","osmId":2158775970}},{"type":"Feature","geometry":{"type":"Point","coordinates":[123.26704,9.07512]},"properties":{"name":"Katipanan","country":"Philippines","website":null,"opening_hours":null,"capacity":null,"phone":null,"address":null,"osmType":"node","osmId":2158775971}},{"type":"Feature","geometry":{"type":"Point","coordinates":[123.2675,9.08286]},"properties":{"name":"Largahan","country":"Philippines","website":null,"opening_hours":null,"capacity":null,"phone":null,"address":null,"osmType":"node","osmId":2158775972}},{"type":"Feature","geometry":{"type":"Point","coordinates":[123.27587,9.07745]},"properties":{"name":"Mamsa point","country":"Philippines","website":null,"opening_hours":null,"capacity":null,"phone":null,"address":null,"osmType":"node","osmId":2158775973}},{"type":"Feature","geometry":{"type":"Point","coordinates":[123.27175,9.07418]},"properties":{"name":"Marine Sanctuary","country":"Philippines","website":null,"opening_hours":null,"capacity":null,"phone":null,"address":null,"osmType":"node","osmId":2158775974}},{"type":"Feature","geometry":{"type":"Point","coordinates":[123.26977,9.07116]},"properties":{"name":"Rock point East","country":"Philippines","website":null,"opening_hours":null,"capacity":null,"phone":null,"address":null,"osmType":"node","osmId":2158775975}},{"type":"Feature","geometry":{"type":"Point","coordinates":[123.26704,9.07274]},"properties":{"name":"Rock point West","country":"Philippines","website":null,"opening_hours":null,"capacity":null,"phone":null,"address":null,"osmType":"node","osmId":2158775976}},{"type":"Feature","geometry":{"type":"Point","coordinates":[124.65453,9.25534]},"properties":{"name":"White Island Black Forest","country":"Philippines","website":null,"opening_hours":null,"capacity":null,"phone":null,"address":null,"osmType":"node","osmId":2188276451}},{"type":"Feature","geometry":{"type":"Point","coordinates":[124.65898,9.25731]},"properties":{"name":"White Island Reef","country":"Philippines","website":null,"opening_hours":null,"capacity":null,"phone":null,"address":null,"osmType":"node","osmId":2188276457}},{"type":"Feature","geometry":{"type":"Point","coordinates":[124.78376,9.26376]},"properties":{"name":"Jigdup Reef","country":"Philippines","website":null,"opening_hours":null,"capacity":null,"phone":null,"address":null,"osmType":"node","osmId":2199374866}},{"type":"Feature","geometry":{"type":"Point","coordinates":[122.1542,18.52205]},"properties":{"name":null,"country":"Philippines","website":null,"opening_hours":null,"capacity":null,"phone":null,"address":null,"osmType":"node","osmId":2240723612}},{"type":"Feature","geometry":{"type":"Point","coordinates":[123.37554,9.93452]},"properties":{"name":"Sampaguita","country":"Philippines","website":null,"opening_hours":null,"capacity":null,"phone":null,"address":null,"osmType":"node","osmId":2286675483}},{"type":"Feature","geometry":{"type":"Point","coordinates":[120.06193,11.97145]},"properties":{"name":"TANGAT (morozan maru)","country":"Philippines","website":null,"opening_hours":null,"capacity":null,"phone":null,"address":null,"osmType":"node","osmId":2586271482}},{"type":"Feature","geometry":{"type":"Point","coordinates":[120.41667,12.66183]},"properties":{"name":"Aladin","country":"Philippines","website":null,"opening_hours":null,"capacity":null,"phone":null,"address":null,"osmType":"node","osmId":2674038368}},{"type":"Feature","geometry":{"type":"Point","coordinates":[120.44394,12.63381]},"properties":{"name":"Apo 29","country":"Philippines","website":null,"opening_hours":null,"capacity":null,"phone":null,"address":null,"osmType":"node","osmId":2674038369}},{"type":"Feature","geometry":{"type":"Point","coordinates":[120.46222,12.61861]},"properties":{"name":"Bajora Cinco","country":"Philippines","website":null,"opening_hours":null,"capacity":null,"phone":null,"address":null,"osmType":"node","osmId":2674038373}},{"type":"Feature","geometry":{"type":"Point","coordinates":[120.41889,12.65767]},"properties":{"name":"Barracuda Point","country":"Philippines","website":null,"opening_hours":null,"capacity":null,"phone":null,"address":null,"osmType":"node","osmId":2674038374}},{"type":"Feature","geometry":{"type":"Point","coordinates":[120.5095,12.61783]},"properties":{"name":"Corde Point","country":"Philippines","website":null,"opening_hours":null,"capacity":null,"phone":null,"address":null,"osmType":"node","osmId":2674038375}},{"type":"Feature","geometry":{"type":"Point","coordinates":[120.41053,12.66633]},"properties":{"name":"Ego Wall","country":"Philippines","website":null,"opening_hours":null,"capacity":null,"phone":null,"address":null,"osmType":"node","osmId":2674038376}},{"type":"Feature","geometry":{"type":"Point","coordinates":[120.40808,12.66704]},"properties":{"name":"Ego Wall","country":"Philippines","website":null,"opening_hours":null,"capacity":null,"phone":null,"address":null,"osmType":"node","osmId":2674038377}},{"type":"Feature","geometry":{"type":"Point","coordinates":[120.5465,12.68622]},"properties":{"name":"Galeon Point","country":"Philippines","website":null,"opening_hours":null,"capacity":null,"phone":null,"address":null,"osmType":"node","osmId":2674038378}},{"type":"Feature","geometry":{"type":"Point","coordinates":[120.44419,12.65947]},"properties":{"name":"Jack's Point","country":"Philippines","website":null,"opening_hours":null,"capacity":null,"phone":null,"address":null,"osmType":"node","osmId":2674038379}},{"type":"Feature","geometry":{"type":"Point","coordinates":[120.41125,12.65642]},"properties":{"name":"Mabuti","country":"Philippines","website":null,"opening_hours":null,"capacity":null,"phone":null,"address":null,"osmType":"node","osmId":2674038380}},{"type":"Feature","geometry":{"type":"Point","coordinates":[120.43236,12.67133]},"properties":{"name":"Manta Point","country":"Philippines","website":null,"opening_hours":null,"capacity":null,"phone":null,"address":null,"osmType":"node","osmId":2674038381}},{"type":"Feature","geometry":{"type":"Point","coordinates":[120.43264,12.66814]},"properties":{"name":"Shark Airport","country":"Philippines","website":null,"opening_hours":null,"capacity":null,"phone":null,"address":null,"osmType":"node","osmId":2674038382}},{"type":"Feature","geometry":{"type":"Point","coordinates":[120.55431,12.67078]},"properties":{"name":"Shark Encounter","country":"Philippines","website":null,"opening_hours":null,"capacity":null,"phone":null,"address":null,"osmType":"node","osmId":2674038383}},{"type":"Feature","geometry":{"type":"Point","coordinates":[120.48742,12.7198]},"properties":{"name":"Shark Ridge","country":"Philippines","website":null,"opening_hours":null,"capacity":null,"phone":null,"address":null,"osmType":"node","osmId":2674038384}},{"type":"Feature","geometry":{"type":"Point","coordinates":[120.49806,12.6215]},"properties":{"name":"Shipwreck","country":"Philippines","website":null,"opening_hours":null,"capacity":null,"phone":null,"address":null,"osmType":"node","osmId":2674038385}},{"type":"Feature","geometry":{"type":"Point","coordinates":[120.54083,12.69006]},"properties":{"name":"Sir Daniel Point","country":"Philippines","website":null,"opening_hours":null,"capacity":null,"phone":null,"address":null,"osmType":"node","osmId":2674038386}},{"type":"Feature","geometry":{"type":"Point","coordinates":[120.41717,12.65469]},"properties":{"name":"South Corner","country":"Philippines","website":null,"opening_hours":null,"capacity":null,"phone":null,"address":null,"osmType":"node","osmId":2674038387}},{"type":"Feature","geometry":{"type":"Point","coordinates":[120.41819,12.65547]},"properties":{"name":"Southeast Corner","country":"Philippines","website":null,"opening_hours":null,"capacity":null,"phone":null,"address":null,"osmType":"node","osmId":2674038388}},{"type":"Feature","geometry":{"type":"Point","coordinates":[120.46211,12.73589]},"properties":{"name":"Prado Point","country":"Philippines","website":null,"opening_hours":null,"capacity":null,"phone":null,"address":null,"osmType":"node","osmId":2674038389}},{"type":"Feature","geometry":{"type":"Point","coordinates":[124.10909,11.32356]},"properties":{"name":"Dakit-Dakit","country":"Philippines","website":null,"opening_hours":null,"capacity":null,"phone":null,"address":null,"osmType":"node","osmId":4003440589}},{"type":"Feature","geometry":{"type":"Point","coordinates":[123.26583,9.07713]},"properties":{"name":null,"country":"Philippines","website":null,"opening_hours":null,"capacity":null,"phone":null,"address":null,"osmType":"node","osmId":4552079342}},{"type":"Feature","geometry":{"type":"Point","coordinates":[123.26726,9.0713]},"properties":{"name":null,"country":"Philippines","website":null,"opening_hours":null,"capacity":null,"phone":null,"address":null,"osmType":"node","osmId":4552079523}},{"type":"Feature","geometry":{"type":"Point","coordinates":[123.26704,9.08192]},"properties":{"name":null,"country":"Philippines","website":null,"opening_hours":null,"capacity":null,"phone":null,"address":null,"osmType":"node","osmId":4552079524}},{"type":"Feature","geometry":{"type":"Point","coordinates":[124.11935,11.3456]},"properties":{"name":"Ka-Osting / Bantigue","country":"Philippines","website":null,"opening_hours":null,"capacity":null,"phone":null,"address":null,"osmType":"node","osmId":4557974264}},{"type":"Feature","geometry":{"type":"Point","coordinates":[124.12632,11.33118]},"properties":{"name":"Evo House Reef","country":"Philippines","website":null,"opening_hours":null,"capacity":null,"phone":null,"address":null,"osmType":"node","osmId":4557974267}},{"type":"Feature","geometry":{"type":"Point","coordinates":[125.08398,9.91377]},"properties":{"name":"Bujong Shoal","country":"Philippines","website":"https://www.wannadive.net/spot/Asia/Philippines/Visayas/Leyte/Limasawa_Island/index.html","opening_hours":null,"capacity":null,"phone":null,"address":null,"osmType":"node","osmId":4692529169}},{"type":"Feature","geometry":{"type":"Point","coordinates":[125.07677,9.94052]},"properties":{"name":"Günter's wall","country":"Philippines","website":"https://www.wannadive.net/spot/Asia/Philippines/Visayas/Leyte/Limasawa_Island/index.html","opening_hours":null,"capacity":null,"phone":null,"address":null,"osmType":"node","osmId":4692529170}},{"type":"Feature","geometry":{"type":"Point","coordinates":[125.072,9.94912]},"properties":{"name":"Adrian's Cove","country":"Philippines","website":"https://www.wannadive.net/spot/Asia/Philippines/Visayas/Leyte/Limasawa_Island/index.html","opening_hours":null,"capacity":null,"phone":null,"address":null,"osmType":"node","osmId":4692529171}},{"type":"Feature","geometry":{"type":"Point","coordinates":[125.06818,9.898]},"properties":{"name":"Bonnie's place","country":"Philippines","website":"https://www.wannadive.net/spot/Asia/Philippines/Visayas/Leyte/Limasawa_Island/index.html","opening_hours":null,"capacity":null,"phone":null,"address":null,"osmType":"node","osmId":4692529172}},{"type":"Feature","geometry":{"type":"Point","coordinates":[120.04876,16.22212]},"properties":{"name":"Coral Garden","country":"Philippines","website":null,"opening_hours":null,"capacity":null,"phone":null,"address":null,"osmType":"node","osmId":4938600221}},{"type":"Feature","geometry":{"type":"Point","coordinates":[124.12036,11.34838]},"properties":{"name":"Deep Slope","country":"Philippines","website":null,"opening_hours":null,"capacity":null,"phone":null,"address":null,"osmType":"node","osmId":4941391019}},{"type":"Feature","geometry":{"type":"Point","coordinates":[124.1159,11.35019]},"properties":{"name":"Secret Wall","country":"Philippines","website":null,"opening_hours":null,"capacity":null,"phone":null,"address":null,"osmType":"node","osmId":4941391020}},{"type":"Feature","geometry":{"type":"Point","coordinates":[124.12601,11.32912]},"properties":{"name":"Exotic House Reef","country":"Philippines","website":null,"opening_hours":null,"capacity":null,"phone":null,"address":null,"osmType":"node","osmId":4941392222}},{"type":"Feature","geometry":{"type":"Point","coordinates":[124.10976,11.34219]},"properties":{"name":"Lighthouse","country":"Philippines","website":null,"opening_hours":null,"capacity":null,"phone":null,"address":null,"osmType":"node","osmId":4941394885}},{"type":"Feature","geometry":{"type":"Point","coordinates":[124.10885,11.34313]},"properties":{"name":"Los Bamboos","country":"Philippines","website":null,"opening_hours":null,"capacity":null,"phone":null,"address":null,"osmType":"node","osmId":4941394886}},{"type":"Feature","geometry":{"type":"Point","coordinates":[124.10565,11.34677]},"properties":{"name":"North Point","country":"Philippines","website":null,"opening_hours":null,"capacity":null,"phone":null,"address":null,"osmType":"node","osmId":4941394887}},{"type":"Feature","geometry":{"type":"Point","coordinates":[124.10241,11.3462]},"properties":{"name":"Lapus-Lapus","country":"Philippines","website":null,"opening_hours":null,"capacity":null,"phone":null,"address":null,"osmType":"node","osmId":4941394888}},{"type":"Feature","geometry":{"type":"Point","coordinates":[124.10231,11.34854]},"properties":{"name":"Lapus-Lapus 2","country":"Philippines","website":null,"opening_hours":null,"capacity":null,"phone":null,"address":null,"osmType":"node","osmId":4941394889}},{"type":"Feature","geometry":{"type":"Point","coordinates":[124.10279,11.35122]},"properties":{"name":"Bogtong Bato","country":"Philippines","website":null,"opening_hours":null,"capacity":null,"phone":null,"address":null,"osmType":"node","osmId":4941394890}},{"type":"Feature","geometry":{"type":"Point","coordinates":[120.0372,11.98834]},"properties":{"name":"Morazan","country":"Philippines","website":null,"opening_hours":null,"capacity":null,"phone":null,"address":null,"osmType":"node","osmId":4971803221}},{"type":"Feature","geometry":{"type":"Point","coordinates":[125.82,9.57333]},"properties":{"name":null,"country":"Philippines","website":null,"opening_hours":null,"capacity":null,"phone":null,"address":null,"osmType":"node","osmId":5094009523}},{"type":"Feature","geometry":{"type":"Point","coordinates":[125.815,9.56167]},"properties":{"name":null,"country":"Philippines","website":null,"opening_hours":null,"capacity":null,"phone":null,"address":null,"osmType":"node","osmId":5209810656}},{"type":"Feature","geometry":{"type":"Point","coordinates":[123.36533,9.94788]},"properties":{"name":null,"country":"Philippines","website":null,"opening_hours":null,"capacity":null,"phone":null,"address":null,"osmType":"node","osmId":5602026522}},{"type":"Feature","geometry":{"type":"Point","coordinates":[122.37246,9.86339]},"properties":{"name":"Bonifacio Reef","country":"Philippines","website":null,"opening_hours":null,"capacity":null,"phone":null,"address":null,"osmType":"node","osmId":5686427445}},{"type":"Feature","geometry":{"type":"Point","coordinates":[122.38119,9.87319]},"properties":{"name":"Hillary's Reef","country":"Philippines","website":null,"opening_hours":null,"capacity":null,"phone":null,"address":null,"osmType":"node","osmId":5686427509}},{"type":"Feature","geometry":{"type":"Point","coordinates":[122.38029,9.87068]},"properties":{"name":"Doug's Ridge","country":"Philippines","website":null,"opening_hours":null,"capacity":null,"phone":null,"address":null,"osmType":"node","osmId":5686427510}},{"type":"Feature","geometry":{"type":"Point","coordinates":[122.38218,9.86839]},"properties":{"name":"Convention Reef","country":"Philippines","website":null,"opening_hours":null,"capacity":null,"phone":null,"address":null,"osmType":"node","osmId":5686427511}},{"type":"Feature","geometry":{"type":"Point","coordinates":[122.37524,9.86575]},"properties":{"name":"Twin Peaks","country":"Philippines","website":null,"opening_hours":null,"capacity":null,"phone":null,"address":null,"osmType":"node","osmId":5686427512}},{"type":"Feature","geometry":{"type":"Point","coordinates":[122.3705,9.86954]},"properties":{"name":"Tanguigue Reef","country":"Philippines","website":null,"opening_hours":null,"capacity":null,"phone":null,"address":null,"osmType":"node","osmId":5686427513}},{"type":"Feature","geometry":{"type":"Point","coordinates":[122.37134,9.87287]},"properties":{"name":"Andres Reef","country":"Philippines","website":null,"opening_hours":null,"capacity":null,"phone":null,"address":null,"osmType":"node","osmId":5686427514}},{"type":"Feature","geometry":{"type":"Point","coordinates":[122.37432,9.88116]},"properties":{"name":"North Wall","country":"Philippines","website":null,"opening_hours":null,"capacity":null,"phone":null,"address":null,"osmType":"node","osmId":5686442041}},{"type":"Feature","geometry":{"type":"Point","coordinates":[122.37374,9.87734]},"properties":{"name":"Manta Reef","country":"Philippines","website":null,"opening_hours":null,"capacity":null,"phone":null,"address":null,"osmType":"node","osmId":5686442042}},{"type":"Feature","geometry":{"type":"Point","coordinates":[122.38304,9.88025]},"properties":{"name":"Wilson's Reef","country":"Philippines","website":null,"opening_hours":null,"capacity":null,"phone":null,"address":null,"osmType":"node","osmId":5686442043}},{"type":"Feature","geometry":{"type":"Point","coordinates":[124.23527,11.29038]},"properties":{"name":"Kimod Shoel","country":"Philippines","website":null,"opening_hours":null,"capacity":null,"phone":null,"address":null,"osmType":"node","osmId":5993437882}},{"type":"Feature","geometry":{"type":"Point","coordinates":[124.19472,11.31339]},"properties":{"name":"Monad Shoal","country":"Philippines","website":null,"opening_hours":null,"capacity":null,"phone":null,"address":null,"osmType":"node","osmId":6215139685}},{"type":"Feature","geometry":{"type":"Point","coordinates":[123.4937,9.21443]},"properties":{"name":"Go Dive Siquijor","country":"Philippines","website":null,"opening_hours":"Mo-Su 09:00-17:00","capacity":null,"phone":null,"address":null,"osmType":"node","osmId":6219905885}},{"type":"Feature","geometry":{"type":"Point","coordinates":[125.60264,7.08073]},"properties":{"name":"South Shore Divers","country":"Philippines","website":null,"opening_hours":null,"capacity":null,"phone":null,"address":"Ruby Street, 8000 Davao City","osmType":"node","osmId":6384700415}},{"type":"Feature","geometry":{"type":"Point","coordinates":[123.36875,9.94295]},"properties":{"name":null,"country":"Philippines","website":null,"opening_hours":null,"capacity":null,"phone":null,"address":null,"osmType":"node","osmId":6447902703}},{"type":"Feature","geometry":{"type":"Point","coordinates":[123.64454,9.28425]},"properties":{"name":null,"country":"Philippines","website":null,"opening_hours":null,"capacity":null,"phone":null,"address":null,"osmType":"node","osmId":6495312785}},{"type":"Feature","geometry":{"type":"Point","coordinates":[124.10793,11.32442]},"properties":{"name":null,"country":"Philippines","website":null,"opening_hours":null,"capacity":null,"phone":null,"address":null,"osmType":"node","osmId":6550933985}},{"type":"Feature","geometry":{"type":"Point","coordinates":[124.80653,9.11912]},"properties":{"name":null,"country":"Philippines","website":null,"opening_hours":null,"capacity":null,"phone":null,"address":null,"osmType":"node","osmId":6961305585}},{"type":"Feature","geometry":{"type":"Point","coordinates":[123.76888,9.61454]},"properties":{"name":null,"country":"Philippines","website":null,"opening_hours":null,"capacity":null,"phone":null,"address":null,"osmType":"node","osmId":7027741086}},{"type":"Feature","geometry":{"type":"Point","coordinates":[123.36295,9.94211]},"properties":{"name":"Diving spot 2","country":"Philippines","website":null,"opening_hours":null,"capacity":null,"phone":null,"address":null,"osmType":"node","osmId":7051884188}},{"type":"Feature","geometry":{"type":"Point","coordinates":[123.3438,9.9219]},"properties":{"name":null,"country":"Philippines","website":null,"opening_hours":null,"capacity":null,"phone":null,"address":null,"osmType":"node","osmId":7051884497}},{"type":"Feature","geometry":{"type":"Point","coordinates":[123.35917,9.9387]},"properties":{"name":"Diving spot 2","country":"Philippines","website":null,"opening_hours":null,"capacity":null,"phone":null,"address":null,"osmType":"node","osmId":7051889796}},{"type":"Feature","geometry":{"type":"Point","coordinates":[120.58795,14.1352]},"properties":{"name":null,"country":"Philippines","website":null,"opening_hours":null,"capacity":null,"phone":null,"address":null,"osmType":"node","osmId":7132499891}},{"type":"Feature","geometry":{"type":"Point","coordinates":[123.98699,10.21037]},"properties":{"name":"Hilutungan Sanctuary","country":"Philippines","website":null,"opening_hours":null,"capacity":null,"phone":null,"address":null,"osmType":"node","osmId":9865506520}},{"type":"Feature","geometry":{"type":"Point","coordinates":[123.77331,9.621]},"properties":{"name":"Napaling Wall Dive","country":"Philippines","website":null,"opening_hours":null,"capacity":null,"phone":null,"address":null,"osmType":"node","osmId":9960449317}},{"type":"Feature","geometry":{"type":"Point","coordinates":[123.26598,9.18297]},"properties":{"name":"Cars Dive","country":"Philippines","website":null,"opening_hours":null,"capacity":null,"phone":null,"address":null,"osmType":"node","osmId":9967152018}},{"type":"Feature","geometry":{"type":"Point","coordinates":[123.2652,9.18095]},"properties":{"name":"Cars dive","country":"Philippines","website":null,"opening_hours":null,"capacity":null,"phone":null,"address":null,"osmType":"node","osmId":9967152817}},{"type":"Feature","geometry":{"type":"Point","coordinates":[123.37417,9.93332]},"properties":{"name":null,"country":"Philippines","website":null,"opening_hours":null,"capacity":null,"phone":null,"address":null,"osmType":"node","osmId":10888628412}},{"type":"Feature","geometry":{"type":"Point","coordinates":[124.82665,9.17441]},"properties":{"name":"Mantigue Island","country":"Philippines","website":null,"opening_hours":null,"capacity":null,"phone":null,"address":null,"osmType":"node","osmId":12284963988}},{"type":"Feature","geometry":{"type":"Point","coordinates":[121.91994,11.96785]},"properties":{"name":"WaterColors Boracay Dive Resort","country":"Philippines","website":null,"opening_hours":null,"capacity":null,"phone":"+63 998 554 1675","address":"Station 1, White Beach, Balabag Boracay Main Road, Boracay Island","osmType":"way","osmId":31780061}},{"type":"Feature","geometry":{"type":"Point","coordinates":[121.92009,11.96756]},"properties":{"name":"New Wave Divers","country":"Philippines","website":null,"opening_hours":null,"capacity":null,"phone":null,"address":null,"osmType":"way","osmId":31780064}},{"type":"Feature","geometry":{"type":"Point","coordinates":[121.92236,11.96511]},"properties":{"name":"Sea Gaia Diving Resort","country":"Philippines","website":null,"opening_hours":null,"capacity":null,"phone":null,"address":null,"osmType":"way","osmId":31780510}},{"type":"Feature","geometry":{"type":"Point","coordinates":[121.92259,11.96474]},"properties":{"name":"Free Willly Diving","country":"Philippines","website":null,"opening_hours":null,"capacity":null,"phone":null,"address":null,"osmType":"way","osmId":31780513}},{"type":"Feature","geometry":{"type":"Point","coordinates":[121.92335,11.96368]},"properties":{"name":"Viking Dive Center","country":"Philippines","website":null,"opening_hours":null,"capacity":null,"phone":null,"address":null,"osmType":"way","osmId":31780518}},{"type":"Feature","geometry":{"type":"Point","coordinates":[121.92544,11.96026]},"properties":{"name":null,"country":"Philippines","website":null,"opening_hours":null,"capacity":null,"phone":null,"address":null,"osmType":"way","osmId":31781010}},{"type":"Feature","geometry":{"type":"Point","coordinates":[121.92832,11.9553]},"properties":{"name":"Calypso Diving","country":"Philippines","website":null,"opening_hours":null,"capacity":null,"phone":null,"address":null,"osmType":"way","osmId":31781036}},{"type":"Feature","geometry":{"type":"Point","coordinates":[121.92938,11.95361]},"properties":{"name":"Aqualife Divers Academy","country":"Philippines","website":null,"opening_hours":null,"capacity":null,"phone":null,"address":null,"osmType":"way","osmId":31781048}},{"type":"Feature","geometry":{"type":"Point","coordinates":[121.92991,11.95258]},"properties":{"name":"Yapak Dive","country":"Philippines","website":null,"opening_hours":null,"capacity":null,"phone":null,"address":null,"osmType":"way","osmId":31781439}},{"type":"Feature","geometry":{"type":"Point","coordinates":[121.93048,11.9518]},"properties":{"name":"Starfire Resort","country":"Philippines","website":null,"opening_hours":null,"capacity":null,"phone":null,"address":null,"osmType":"way","osmId":31781444}},{"type":"Feature","geometry":{"type":"Point","coordinates":[121.93139,11.94951]},"properties":{"name":"Blue Mango Dive Center","country":"Philippines","website":null,"opening_hours":null,"capacity":null,"phone":null,"address":null,"osmType":"way","osmId":31781455}},{"type":"Feature","geometry":{"type":"Point","coordinates":[121.93146,11.94927]},"properties":{"name":"Whitebeach Divers and Loon Sunset Bar","country":"Philippines","website":null,"opening_hours":null,"capacity":null,"phone":null,"address":null,"osmType":"way","osmId":31781457}},{"type":"Feature","geometry":{"type":"Point","coordinates":[123.98578,10.20883]},"properties":{"name":"Hilutungan Sanctuary","country":"Philippines","website":null,"opening_hours":null,"capacity":null,"phone":null,"address":null,"osmType":"way","osmId":47239036}},{"type":"Feature","geometry":{"type":"Point","coordinates":[124.12327,11.34027]},"properties":{"name":"Coral Garden Marine Protected Area","country":"Philippines","website":null,"opening_hours":null,"capacity":null,"phone":null,"address":null,"osmType":"way","osmId":126419898}},{"type":"Feature","geometry":{"type":"Point","coordinates":[124.10562,11.34729]},"properties":{"name":"Marine Protected Area","country":"Philippines","website":null,"opening_hours":null,"capacity":null,"phone":null,"address":null,"osmType":"way","osmId":244531732}},{"type":"Feature","geometry":{"type":"Point","coordinates":[124.1079,11.34125]},"properties":{"name":"Japanese Ship Wreck","country":"Philippines","website":null,"opening_hours":null,"capacity":null,"phone":null,"address":null,"osmType":"way","osmId":244536817}},{"type":"Feature","geometry":{"type":"Point","coordinates":[125.00678,10.031]},"properties":{"name":"Southern Leyte Divers","country":"Philippines","website":"https://www.leyte-divers.com/","opening_hours":null,"capacity":null,"phone":"+63 9216631592","address":"San Roque, 6601 Macrohon","osmType":"way","osmId":246170599}},{"type":"Feature","geometry":{"type":"Point","coordinates":[120.25127,14.84924]},"properties":{"name":"DA'KUDOS Beach Resort","country":"Philippines","website":null,"opening_hours":null,"capacity":null,"phone":null,"address":"2200 Olongapo","osmType":"way","osmId":264040718}},{"type":"Feature","geometry":{"type":"Point","coordinates":[121.93141,11.94883]},"properties":{"name":"Island staff","country":"Philippines","website":null,"opening_hours":null,"capacity":null,"phone":null,"address":null,"osmType":"way","osmId":269529287}},{"type":"Feature","geometry":{"type":"Point","coordinates":[123.77002,9.54798]},"properties":{"name":null,"country":"Philippines","website":null,"opening_hours":null,"capacity":null,"phone":null,"address":null,"osmType":"way","osmId":303721484}},{"type":"Feature","geometry":{"type":"Point","coordinates":[120.89953,13.50288]},"properties":{"name":"Deluna","country":"Philippines","website":"https://deluna-diving.com/","opening_hours":null,"capacity":null,"phone":null,"address":null,"osmType":"way","osmId":333113488}},{"type":"Feature","geometry":{"type":"Point","coordinates":[124.18825,11.30891]},"properties":{"name":"Monad Shoel","country":"Philippines","website":null,"opening_hours":null,"capacity":null,"phone":null,"address":null,"osmType":"way","osmId":485836542}}]}